Street Address,City,ZIP,Groups With Access Code,Access Days Time,EV Level1 EVSE Num,EV Level2 EVSE Num,EV DC Fast Count,EV Other Info,Latitude,Longitude,ID,EV Connector Types,Facility Type
11797 Truesdale St,Sun Valley,91352,Private,Fleet use only,,39,3,,34.2483191527193,-118.3879713743439,1517,CHADEMO J1772 J1772COMBO,UTILITY
1394 S Sepulveda Blvd,Los Angeles,90024,Private,,,4,,,34.052542,-118.448504,1519,J1772,UTILITY
1201 S Figueroa St,Los Angeles,90015,Public,24 hours daily; pay lot,,12,,,34.040539,-118.271387,1523,J1772,PARKING_GARAGE
111 N Hope St,Los Angeles,90012,Private,For fleet and employee use only,,311,2,,34.059133,-118.248589,1525,CHADEMO J1772 J1772COMBO,UTILITY
6801 E 2nd St,Long Beach,90803,Private,Fleet use only,,19,1,,33.759802,-118.096665,1531,CHADEMO J1772 J1772COMBO,UTILITY
161 N Island Ave,Wilmington,90744,Private,Fleet use only,,10,,,33.770508,-118.265628,1552,J1772,UTILITY
1630 N Main St,Los Angeles,90012,Private,Fleet and employee use only,,46,1,,34.066801,-118.227605,1572,CHADEMO J1772,UTILITY
2311 S Fairfax Ave,Los Angeles,90016,Private,Fleet use only,,13,,,34.036777,-118.368841,1573,J1772,UTILITY
9530 Telstar Ave,El Monte,91731,Public,24 hours daily,,3,,,34.06872,-118.064,1583,J1772,STATE_GOV
1212 Palmetto St,Los Angeles,90013,Private,Fleet use only,,10,,,34.039736,-118.236065,1589,J1772,UTILITY
10666 N Torrey Pines Rd,La Jolla,92037,Public,24 hours daily,,1,,,32.89947,-117.243,6355,J1772,HOSPITAL
15421 Roscoe Blvd,Sepulveda,91343,Public - Call ahead,Dealership business hours,,2,,,34.221665,-118.468371,6405,J1772,CAR_DEALER
1299 Galleria at Tyler,Riverside,92503,Public,6am-12am daily,,4,,,33.909914,-117.459053,6425,J1772,SHOPPING_MALL
150 E Holly St,Pasadena,91103,Public,24 hours daily; pay lot,,16,,,34.14762,-118.147111,6505,J1772,PARKING_GARAGE
45 De Lacey Ave,Pasadena,91105,Public,24 hours daily; pay lot,,2,,,34.145138,-118.152655,6506,J1772,PARKING_GARAGE
33 E Green St,Pasadena,91105,Public,24 hours daily; pay lot,,3,,,34.145119,-118.150133,6507,J1772,PARKING_GARAGE
150 S Los Robles,Pasadena,91101,Public,24 hours daily; for guest use only; valet fee,,4,,,34.142973,-118.140553,6508,J1772,HOTEL
200 S Pine Ave,Long Beach,90802,Public,24 hours daily; pay lot; see valet for access,,1,,,33.7637,-118.192,7172,J1772,HOTEL
1 World Way,Los Angeles,90045,Public,24 hours daily; pay lot,,20,,,33.94325,-118.403342,7184,J1772,AIRPORT
9301 Tampa Ave,Northridge,91324,Public,6am-12am daily,,2,,,34.241116,-118.556708,7192,J1772,SHOPPING_MALL
700 N Haven Ave,Ontario,91764,Public,24 hours daily; guest use only,,1,,,34.07122,-117.575,7194,J1772,HOTEL
600 E Esplanade Dr,Oxnard,93030,Public,24 hours daily; guest use only,,1,,,34.228315,-119.170865,7195,J1772,HOTEL
400 E Tahquitz Canyon Way,Palm Springs,92262,Public,24 hours daily; pay lot; priority given to registered guests,,2,,,33.824004,-116.543589,7196,J1772,HOTEL
4340 Rosewood Dr,Pleasanton,94588,Public,Dealership business hours,,2,,,37.700187,-121.876172,7197,J1772,CAR_DEALER
5425 Wilson St,Riverside,92509,Public,8am-4:30pm M-F,,3,,,34.0189,-117.38,7206,J1772,OFFICE_BLDG
Lindbergh Dr,Sacramento,95837,Public,24 hours daily; pay lot,,4,,1 SP Inductive,38.69005,-121.58889,7212,J1772,AIRPORT
3223 Donald Douglas Loop,Santa Monica,90405,Public,24 hours daily,,2,,,34.017081,-118.44704,7229,J1772,AIRPORT
200 Santa Monica Pier,Santa Monica,90405,Public,24 hours daily; pay lot,,3,,,34.010021,-118.49583,7230,J1772,MUNI_GOV
14006 Riverside Dr,Sherman Oaks,91423,Public,6am-12am daily,,4,,,34.156839,-118.434454,7233,J1772,SHOPPING_CENTER
7724 Van Nuys Blvd,Van Nuys,91405,Public,24 hours daily,,4,,,34.21108,-118.448704,7245,J1772,PARKING_LOT
7075 Firestone Blvd,Downey,90241,Public,24 hours daily,,4,,,33.94756,-118.153806,7250,J1772,SHOPPING_CENTER
555 N Point St,San Francisco,94133,Public,24 hours daily; pay lot; see valet for access,,1,,,37.80619,-122.4152,7280,J1772,HOTEL
1689 Arden Way,Sacramento,95815,Public,24 hours daily,,4,,,38.599693,-121.427045,7286,J1772,SHOPPING_MALL
2 New Montgomery St,San Francisco,94105,Public,24 hours daily,,1,,,37.78881,-122.401,21358,J1772,HOTEL
999 California St,San Francisco,94108,Public,24 hours daily; for guest use only; see valet for access,,1,,,37.791791,-122.411265,21360,J1772,HOTEL
8555 Beverly Blvd,Los Angeles,90048,Public,24 hours daily; for guest use only; see valet for access,,2,,,34.076264,-118.377527,21368,J1772,HOTEL
135 N Grand Ave,Los Angeles,90012,Public,"Garage business hours; pay lot; keypad activated, instructions on EVSE",,3,,,34.057657,-118.24789,21374,J1772,PAY_GARAGE
16821 Burbank Blvd,Encino,91436,Public,24 hours daily,,1,,,34.169242,-118.497212,21383,J1772,REC_SPORTS_FACILITY
18111 Nordhoff St,Northridge,91330,Public,24 hours daily; parking permit required,,2,,,34.248959,-118.523887,21395,J1772,COLLEGE_CAMPUS
18111 Nordhoff St,Northridge,91330,Public,24 hours daily; parking permit required,,2,,,34.241687,-118.528543,21396,J1772,COLLEGE_CAMPUS
18111 Nordhoff St,Northridge,91330,Public,24 hours daily; parking permit required,,4,,,34.236853,-118.532588,21397,J1772,COLLEGE_CAMPUS
8775 Wilbur Ave,Northridge,91324,Public,24 hours daily,,4,,,34.229277,-118.544827,21398,J1772,PARKING_LOT
425 S Palos Verdes St,San Pedro,90731,Public,8am-5pm daily,,4,,,33.740758,-118.28192,21402,J1772,PARKING_LOT
Village Way Dr,San Fernando,91342,Public,24 hours daily,,4,,,34.2924134,-118.4497914,21414,J1772,PARKING_LOT
1200 Getty Center Dr,Los Angeles,90049,Public,Garage business hours; pay lot; Drivers must bring their own J1772 cordset for Level 1 charging,12,16,,,34.077588,-118.474585,21419,J1772 NEMA520,PARKING_GARAGE
301 N Baldwin Ave,Arcadia,91007,Public,24 hours daily,,3,,,34.145528,-118.050548,21450,J1772,MUNI_GOV
114 S Vista Bonita Ave,Glendora,91741,Public,5am-2am daily,,3,,,34.13556,-117.864,21498,J1772,MUNI_GOV
6161 Centinela Ave,Culver City,90230,Public,24 hours daily; guest use only,,2,,,33.9826,-118.3966,21524,J1772,HOTEL
8800 Venice Blvd,Los Angeles,90034,Public,24 hours daily,,6,,,34.029971,-118.385231,21525,J1772,PARKING_GARAGE
2800 N Main St,Santa Ana,92705,Public,Business hours,,6,,,33.777054,-117.870566,21535,J1772,SHOPPING_MALL
1 University Dr,Camarillo,93012,Public,24 hours daily; parking pass required or day pass available for purchase,,5,,,34.16657601660278,-119.0458546627045,21559,J1772,COLLEGE_CAMPUS
101 S Brea Blvd,Brea,92821,Public,Garage business hours; 4 hour parking limit,,4,,,33.919899,-117.898618,21561,J1772,PARKING_GARAGE
2745 Teller Rd,Newbury Park,91320,Public,24 hours daily; Drivers must bring their own J1772 cordset for Level 1 charging,4,2,,,34.192178,-118.934793,21565,J1772 NEMA515,SHOPPING_CENTER
Casitas Pass Rd & Baldwin Rd,Oak View,93022,Public - Call ahead,8am-5pm daily,,1,,,34.418322,-119.3368,21566,J1772,PARK
205 S San Dimas Ave,San Dimas,91773,Public,24 hours daily,,2,,,34.105275,-117.809208,21569,J1772,PARKING_LOT
100 N El Molino Ave,Pasadena,91101,Public,24 hours daily; pay lot,,2,,,34.147709,-118.136621,21594,J1772,PARKING_LOT
800 S Victoria Ave,Ventura,93009,Public,8am-5pm daily,,3,,,34.267352,-119.2124,21606,J1772,MUNI_GOV
669 County Square Dr,Ventura,93003,Public,8am-5pm daily,,3,,,34.268756,-119.2154,21607,J1772,MUNI_GOV
3295 E Main St,Ventura,93003,Public,24 hours daily,,2,,1 SP Inductive,34.268,-119.2492,21608,J1772,SHOPPING_MALL
12700 Vista del Mar,Playa del Rey,90293,Private,Fleet use only,,16,,,33.917593,-118.425334,21609,J1772,UTILITY
1441 Research Park Dr,Davis,95616,Public,24 hours daily,1,3,,,38.539336,-121.732405,21673,J1772 NEMA520,COLLEGE_CAMPUS
3433 Roberto Ct,San Luis Obispo,93401,Private,Drivers must bring their own J1772 cordset for Level 1 charging,1,1,,,35.25939,-120.64492,21713,J1772 NEMA520,MUNI_GOV
601 Front St,Santa Cruz,95061,Public,24 hours daily,,5,,,36.973393,-122.024849,21794,J1772,PARKING_GARAGE
315 N Island Ave,Wilmington,90744,Private,Fleet use only,,8,,,33.773005,-118.265821,25171,J1772,UTILITY
11601 Fair Oaks Blvd,Fair Oaks,95628,Public,24 hours daily,,2,,,38.66292,-121.2634,25491,J1772,PARKING_LOT
2901 K St,Sacramento,95816,Public,24 hours daily; pay lot; visitor and student use only; Drivers must bring their own J1772 cordset for Level 1 charging,1,2,,,38.57277,-121.467902,25494,J1772 NEMA520,COLLEGE_CAMPUS
4235 Antelope Rd,Antelope,95843,Public,24 hours daily,,1,,,38.7042,-121.365,25497,J1772,LIBRARY
2710 Gateway Oaks Dr,Sacramento,95833,Private,Tenant use only,,1,,,38.615468,-121.517263,25500,J1772,OFFICE_BLDG
4860 Y St,Sacramento,95817,Public,24 hours daily,,2,,,38.552483,-121.4487,25501,J1772,HOSPITAL
5600 S Land Park Dr,Sacramento,95822,Public,24 hours daily,,2,,,38.524403,-121.5112,25502,J1772,LIBRARY
Mosquito Rd & Clay St,Placerville,95667,Public,Lot business hours; overnight parking prohibited,,2,,,38.73323,-120.78962,25507,J1772,MUNI_GOV
1000 Ulatis Dr,Vacaville,95687,Public,24 hours daily,,1,,1 SP Inductive,38.356027,-121.9628,25511,J1772,MUNI_GOV
190 Hickory Ln,Vacaville,95688,Public,24 hours daily,,3,,1 SP Inductive,38.35172,-121.987,25515,J1772 TESLA,TRAVEL_CENTER
40 Eldridge Ave,Vacaville,95688,Public,24 hours daily,,1,,1 SP Inductive,38.356907,-122.001886,25516,J1772,OFFICE_BLDG
500 Catherine St,Vacaville,95688,Public,24 hours daily,,1,,1 SP Inductive,38.355867,-121.9862,25517,J1772,PARKING_LOT
650 Merchant St,Vacaville,95688,Public,Primarily government use,,10,,3 SP Inductive,38.351758,-121.994475,25518,J1772,MUNI_GOV
6360 Fountain Square Dr,Citrus Heights,95621,Public,24 hours daily,,4,,1 SP Inductive,38.682605,-121.297614,25519,J1772,MUNI_GOV
2850 Fairlane Ct,Placerville,95667,Public,24 hours daily,,3,,,38.72799,-120.828,25522,J1772,MUNI_GOV
4640 Post St,El Dorado Hills,95762,Public,24 hours daily,,2,,,38.6476,-121.067,25523,J1772,MUNI_GOV
8480 Laguna Grove Dr,Elk Grove,95758,Private,Service center use only,,1,,,38.40553,-121.391,25525,J1772,CAR_DEALER
8455 Auburn-Folsom Rd,Granite Bay,95746,Public,8am-10pm daily,,1,,,38.74453,-121.17,25527,J1772,CONVENIENCE_STORE
5605 Marconi Ave,Carmichael,95608,Public,24 hours daily,,1,,,38.618066,-121.334337,25610,J1772,LIBRARY
1 Main St,Rio Vista,94571,Public,24 hours daily,,1,,,38.15485,-121.69,27302,J1772,MUNI_GOV
1000 Webster St,Fairfield,94533,Public,24 hours daily,,2,,,38.25281,-122.044229,27328,J1772,MUNI_GOV
4000 Suisun Valley Rd,Fairfield,94534,Public,24 hours daily,,3,,1 SP Inductive,38.23723,-122.123,27329,J1772,COLLEGE_CAMPUS
1 World Way,Los Angeles,90045,Public,24 hours daily; pay lot,,20,,,33.944761,-118.399767,28007,J1772,AIRPORT
1201 K St,Sacramento,95831,Private,,,1,,,38.578568,-121.491058,32850,J1772,UTILITY
1350 S Wall St,Los Angeles,90015,Private,Fleet use only,,21,,,34.033898,-118.256673,33178,J1772,UTILITY
3101 Artesian St,Los Angeles,90031,Private,Fleet use only,,67,,,34.081998,-118.21713,33179,J1772,UTILITY
11801 Sheldon St,Sun Valley,91352,Private,Fleet and employee use only,,17,,,34.241928,-118.390147,33183,J1772,UTILITY
N Oak St & W Standley St,Ukiah,95482,Public,24 hours daily,,1,,1 SP Inductive,39.15,-123.2091,33544,J1772,PARKING_LOT
1651 E Monte Vista Ave,Vacaville,95688,Public,24 hours daily; Drivers must bring their own J1772 cordset for Level 1 charging,1,1,,1 SP Inductive,38.368755,-121.961192,33545,J1772 NEMA515,SHOPPING_CENTER
3091 County Center Dr,Auburn,95603,Public - Credit card at all times,24 hours daily,,3,,,38.9412492,-121.1054805,33550,J1772,MUNI_GOV
817 4th St,Davis,95616,Public,6am to 2am daily,,2,,,38.54643,-121.7388,33555,J1772,PARKING_GARAGE
840 2nd St,Davis,95616,Public,24 hours daily,,2,,1 SP Inductive,38.5443,-121.738,33556,J1772,PAY_LOT
6 Howard Way,Davis,95616,Public,24 hours daily; pay lot; permit required 7am-10pm M-F; Drivers must bring their own J1772 cordset for Level 1 charging,2,7,,,38.544538,-121.749713,33557,J1772 NEMA520,COLLEGE_CAMPUS
315 Mace Blvd,Davis,95618,Public,24 hours daily,,1,,,38.55755,-121.6947,33558,J1772,PLACE_OF_WORSHIP
4500 Silva St,Lakewood,90712,Public,Mall business hours,,2,,,33.84788,-118.13889,33564,J1772,SHOPPING_MALL
101 E Sir Francis Drake Blvd,Larkspur,94939,Public,24 hours daily; pay lot,,1,,1 SP Inductive,37.94495,-122.5096,33690,J1772,PARKING_LOT
1 Airport Dr,Oakland,94621,Public,24 hours daily; pay lot,,2,,,37.7136,-122.2087,33695,J1772,AIRPORT
2000 Cadenasso Dr,Fairfield,94533,Public,24 hours daily,,2,,2 Tesla Conductive,38.2482,-122.0678,35146,J1772,TRAVEL_CENTER
1 Dr Carlton B Goodlet Pl,San Francisco,94102,Private,City vehicle use only,,1,,,37.77913,-122.418,35149,J1772,MUNI_GOV
1551 Froom Ranch Way,San Luis Obispo,93405,Public,24 hours daily,,2,,,35.249929,-120.689683,35560,J1772,SHOPPING_CENTER
319 Madonna Rd,San Luis Obispo,93401,Public,24 hours daily,,4,,,35.25982,-120.676,35561,J1772,SHOPPING_CENTER
801 Santa Monica Blvd,Santa Monica,90401,Public - Call ahead,Dealership business hours; priority for customer use,,3,,,34.019875,-118.49151,38379,J1772,CAR_DEALER
655 Beach St,San Francisco,94109,Public,24 hours daily; pay lot,,5,,,37.806798,-122.419488,38518,J1772,PAY_GARAGE
333 Civic Center Dr,Santa Monica,90401,Public,24 hours daily; pay lot,,12,2,,34.010528,-118.4898,38521,CHADEMO J1772,MUNI_GOV
693 S Orchard Ave,Ukiah,95482,Public - Call ahead,24 hours daily; guests may request use of the chargers when making hotel reservations,,1,,,39.1458,-123.198497,39314,J1772,HOTEL
1831 Auto Center Dr,Antioch,94509,Public - Call ahead,Dealership business hours,,1,1,,38.007799,-121.832042,39870,CHADEMO J1772 J1772COMBO,CAR_DEALER
2800 Pacheco Rd,Bakersfield,93313,Public - Call ahead,Dealership business hours,,3,1,,35.310723,-119.035324,39871,CHADEMO J1772 J1772COMBO,CAR_DEALER
6501 Auto Center Dr,Buena Park,90621,Public - Call ahead,Dealership business hours,,3,1,,33.865497,-117.995215,39872,CHADEMO J1772 J1772COMBO,CAR_DEALER
1505 E 223rd St,Carson,90745,Public - Call ahead,Dealership business hours,,2,1,,33.824968,-118.245675,39873,CHADEMO J1772 J1772COMBO,CAR_DEALER
68177 Kyle Rd,Cathedral City,92234,Public - Call ahead,Dealership business hours,,1,1,,33.78414,-116.471,39874,CHADEMO J1772,CAR_DEALER
18707 Studebaker Rd,Cerritos,90703,Public - Call ahead,Dealership business hours,,1,1,,33.861544,-118.100471,39875,CHADEMO J1772 J1772COMBO,CAR_DEALER
575 Manzanita Ave,Chico,95926,Public - Call ahead,Dealership business hours,,3,1,,39.756332,-121.843715,39876,CHADEMO J1772 J1772COMBO,CAR_DEALER
17320 E Gale Ave,City of Industry,91748,Public - Call ahead,Dealership business hours,,2,1,,33.997621,-117.928216,39877,CHADEMO J1772 J1772COMBO,CAR_DEALER
370 W Herndon Ave,Clovis,93612,Public - Call ahead,Dealership business hours,,1,,,36.836818,-119.717629,39878,J1772,CAR_DEALER
1500 Collins Ave,Colma,94014,Public - Call ahead,Dealership business hours,,1,1,,37.671267,-122.463541,39879,CHADEMO J1772,CAR_DEALER
1290 Concord Ave,Concord,94520,Public - Call ahead,Dealership business hours,,1,,,37.980192,-122.050128,39880,J1772,CAR_DEALER
2575 Wardlow Rd,Corona,92882,Public - Call ahead,Dealership business hours,,2,1,,33.88309,-117.615292,39881,CHADEMO J1772,CAR_DEALER
2850 Harbor Blvd,Costa Mesa,92626,Public - Call ahead,Dealership business hours,,2,1,,33.675397,-117.918684,39882,CHADEMO J1772 J1772COMBO,CAR_DEALER
5009 Chiles Rd,Davis,95618,Public - Call ahead,Dealership business hours,,1,1,,38.55252,-121.691555,39883,CHADEMO J1772,CAR_DEALER
7321 Firestone Blvd,Downey,90241,Public - Call ahead,Dealership business hours,,4,2,,33.9473,-118.151166,39884,J1772 J1772COMBO,CAR_DEALER
1434 Buena Vista St,Duarte,91010,Public - Call ahead,Dealership business hours,,1,,,34.136553,-117.975944,39885,J1772,CAR_DEALER
1170 W Main St,El Cajon,92020,Public - Call ahead,Dealership business hours,,1,,,32.795896,-116.976156,39886,J1772,CAR_DEALER
3428 N Peck Rd,El Monte,91731,Public - Call ahead,Dealership business hours,,2,1,,34.069536,-118.026911,39887,CHADEMO J1772 J1772COMBO,CAR_DEALER
8590 Laguna Grove Dr,Elk Grove,95757,Public - Call ahead,Dealership business hours,,4,2,,38.402217,-121.385527,39888,CHADEMO J1772,CAR_DEALER
1546 Auto Park Way,Escondido,92029,Public - Call ahead,Dealership business hours,,1,,,33.116492,-117.106837,39889,J1772,CAR_DEALER
601 7th St,Eureka,95501,Public - Call ahead,Dealership business hours,,1,,,40.800562,-124.164405,39890,J1772,CAR_DEALER
12610 Auto Mall Cir,Folsom,95630,Public - Call ahead,Dealership business hours,,3,1,,38.634132,-121.204871,39891,CHADEMO J1772 J1772COMBO,CAR_DEALER
16444 S Highland Ave,Fontana,92336,Public - Call ahead,Dealership business hours,,2,1,,34.135345,-117.445732,39892,CHADEMO J1772 J1772COMBO,CAR_DEALER
5701 Cushing Pkwy,Fremont,94538,Public - Call ahead,Dealership business hours,,2,1,,37.489389,-121.9576,39893,CHADEMO J1772,CAR_DEALER
5580 N Blackstone Ave,Fresno,93710,Public - Call ahead,Dealership business hours,,1,,,36.818622,-119.789796,39894,J1772,CAR_DEALER
9222 Trask Ave,Garden Grove,92844,Public - Call ahead,Dealership business hours,,2,1,,33.766376,-117.968337,39895,CHADEMO J1772 J1772COMBO,CAR_DEALER
1670 W Redondo Beach Blvd,Gardena,90247,Public - Call ahead,Dealership business hours,,1,,,33.889201,-118.307028,39896,J1772,CAR_DEALER
400 Automall Dr,Gilroy,95020,Public - Call ahead,Dealership business hours,,1,,,36.996869,-121.558573,39897,J1772,CAR_DEALER
727 S Brand Blvd,Glendale,91204,Public - Call ahead,Dealership business hours; contact 630-469-6100 for more information,,1,1,,34.137054,-118.25536,39898,CHADEMO J1772 J1772COMBO,CAR_DEALER
425 S Kellogg Ave,Goleta,93117,Public - Call ahead,Dealership business hours,,3,1,,34.43427,-119.820934,39899,CHADEMO J1772,CAR_DEALER
24644 Mission Blvd,Hayward,94544,Public - Call ahead,Dealership business hours,,2,1,,37.662305,-122.075178,39901,CHADEMO J1772 J1772COMBO,CAR_DEALER
200 Carriage Cir,Hemet,92545,Public - Call ahead,Dealership business hours,,1,,,33.741163,-117.031718,39902,J1772,CAR_DEALER
17331 Beach Blvd,Huntington Beach,92647,Public - Call ahead,Dealership business hours,,2,1,,33.71069,-117.989861,39903,CHADEMO J1772 J1772COMBO,CAR_DEALER
32 Auto Center Dr,Irvine,92618,Public - Call ahead,Dealership business hours,,2,1,,33.632505,-117.723298,39904,CHADEMO J1772 J1772COMBO,CAR_DEALER
79125 Highway 111,La Quinta,92253,Public - Call ahead,Dealership business hours,,2,1,,33.70711,-116.283712,39905,CHADEMO J1772,CAR_DEALER
635 W Washington Blvd,Los Angeles,90015,Public - Call ahead,Dealership business hours,,1,1,,34.035168,-118.273229,39906,CHADEMO J1772,CAR_DEALER
3550 Cahuenga Blvd W,Los Angeles,90068,Public - Call ahead,Dealership business hours,,2,1,,34.133446,-118.356601,39907,CHADEMO J1772,CAR_DEALER
1675 Auto Center Dr,Merced,95340,Public - Call ahead,Dealership business hours,,1,,,37.305891,-120.502428,39908,J1772,CAR_DEALER
11000 Sepulveda Blvd,Mission Hills,91345,Public - Call ahead,Dealership business hours,,1,,,34.269809,-118.466606,39910,J1772,CAR_DEALER
4530 McHenry Ave,Modesto,95356,Public - Call ahead,Dealership business hours,,1,,,37.705119,-120.99471,39911,J1772,CAR_DEALER
9440 Autoplex Dr,Montclair,91763,Public - Call ahead,Dealership business hours,,1,1,,34.082404,-117.694876,39912,CHADEMO J1772 J1772COMBO,CAR_DEALER
1665 Industrial Park Ave,Redlands,92374,Public - Call ahead,Dealership business hours,,3,1,,34.065387,-117.212007,39913,CHADEMO J1772 J1772COMBO,CAR_DEALER
510 Soscol Ave,Napa,94559,Public - Call ahead,Dealership business hours,,1,,,38.292706,-122.277767,39914,J1772,CAR_DEALER
2700 National City Blvd,National City,91950,Public - Call ahead,Dealership business hours,,1,,,32.659001,-117.100836,39915,J1772,CAR_DEALER
3535 College Blvd,Oceanside,92056,Public - Call ahead,Dealership business hours,,2,1,,33.181953,-117.298334,39916,CHADEMO J1772,CAR_DEALER
1140 W Katella Ave,Orange,92867,Public - Call ahead,Dealership business hours,,2,1,,33.80857,-117.864434,39917,CHADEMO J1772,CAR_DEALER
1801 Auto Center Dr,Oxnard,93036,Public - Call ahead,Dealership business hours,,1,1,,34.22771,-119.150217,39918,CHADEMO J1772,CAR_DEALER
451 Auto Center Dr,Palmdale,93551,Public - Call ahead,24 hours daily; primarily for customer use,,2,2,,34.591173,-118.138184,39919,CHADEMO J1772,CAR_DEALER
1250 Auto Center Dr,Petaluma,94952,Public - Call ahead,Dealership business hours,,4,1,,38.267202,-122.665068,39920,CHADEMO J1772 J1772COMBO,CAR_DEALER
14100 Poway Rd,Poway,92064,Public - Call ahead,Dealership business hours,,1,1,,32.956772,-117.025943,39921,CHADEMO J1772,CAR_DEALER
300 E Cypress Ave,Redding,96002,Public - Call ahead,Dealership business hours,,1,,,40.571632,-122.36654,39922,J1772,CAR_DEALER
1 Bair Island Rd,Redwood City,94063,Public - Call ahead,Dealership business hours,,3,1,,37.495963,-122.227322,39923,CHADEMO J1772,CAR_DEALER
3277 Auto Plaza,Richmond,94806,Public - Call ahead,Dealership business hours,,1,1,,37.985253,-122.32124,39925,CHADEMO J1772 J1772COMBO,CAR_DEALER
6030 Sycamore Canyon Blvd,Riverside,92507,Public - Call ahead,Dealership business hours,,1,,,33.941878,-117.297603,39926,J1772,CAR_DEALER
8330 Indiana Ave,Riverside,92504,Public - Call ahead,Dealership business hours,,2,1,,33.925469,-117.419673,39927,CHADEMO J1772 J1772COMBO,CAR_DEALER
600 Automall Dr,Roseville,95661,Public - Call ahead,Dealership business hours; 916-969-5700,,1,1,,38.752198,-121.256452,39928,CHADEMO J1772 J1772COMBO,CAR_DEALER
2820 Auburn Blvd,Sacramento,95821,Public - Call ahead,Dealership business hours; 916-488-5400,,1,1,,38.631393,-121.396604,39929,CHADEMO J1772 J1772COMBO,CAR_DEALER
222 Auto Center Cir,Salinas,93907,Public - Call ahead,Dealership business hours,,2,1,,36.720023,-121.662519,39930,CHADEMO J1772,CAR_DEALER
735 Showcase Dr S,San Bernardino,92408,Public - Call ahead,Dealership business hours; contact 909-885-3883 for more information,,1,1,,34.074378,-117.298,39931,CHADEMO J1772,CAR_DEALER
8118 Clairemont Mesa Blvd,San Diego,92111,Public - Call ahead,Dealership business hours,,1,1,,32.833179,-117.147384,39932,CHADEMO J1772,CAR_DEALER
4433 Mission Bay Dr,San Diego,92109,Public - Call ahead,Dealership business hours,,1,1,,32.802475,-117.215269,39933,CHADEMO J1772,CAR_DEALER
680 E El Camino Real,Sunnyvale,94087,Public - Call ahead,Dealership business hours,,2,,,37.359362,-122.022783,39934,J1772,CAR_DEALER
1120 W Capitol Expy,San Jose,95136,Public - Call ahead,Dealership business hours,,1,2,,37.275144,-121.877656,39935,CHADEMO J1772 J1772COMBO,CAR_DEALER
33633 Camino Capistrano,San Juan Capistrano,92675,Public - Call ahead,Dealership business hours,,2,1,,33.47443,-117.676142,39936,CHADEMO J1772,CAR_DEALER
1152 Marina Blvd,San Leandro,94577,Public - Call ahead,Dealership business hours,,2,1,,37.712609,-122.162746,39937,CHADEMO J1772 J1772COMBO,CAR_DEALER
12150 Los Osos Valley Rd,San Luis Obispo,93405,Public - Call ahead,Dealership business hours,,4,1,,35.25062,-120.68455,39938,CHADEMO J1772,CAR_DEALER
4855 Stevens Creek Blvd,Santa Clara,95051,Public - Call ahead,Dealership business hours,,1,2,,37.323569,-121.988027,39939,CHADEMO J1772 J1772COMBO,CAR_DEALER
1275 Santa Rosa Ave,Santa Rosa,95404,Public - Call ahead,Dealership business hours,,4,1,,38.425537,-122.714089,39943,CHADEMO J1772 J1772COMBO,CAR_DEALER
1661 Del Monte Blvd,Seaside,93955,Public - Call ahead,Dealership business hours,,2,1,,36.611189,-121.849899,39944,CHADEMO J1772,CAR_DEALER
5425 Van Nuys Blvd,Sherman Oaks,91401,Public - Call ahead,Dealership business hours,,1,1,,34.168824,-118.449059,39945,CHADEMO J1772 J1772COMBO,CAR_DEALER
2325 1st St,Simi Valley,93065,Public - Call ahead,Dealership business hours,,1,1,,34.277324,-118.778957,39947,CHADEMO J1772 J1772COMBO,CAR_DEALER
3077 E Hammer Ln,Stockton,95212,Public - Call ahead,Dealership business hours,,2,1,,38.022022,-121.275339,39948,CHADEMO J1772,CAR_DEALER
41895 Motor Car Pkwy,Temecula,92591,Public - Call ahead,Dealership business hours,,2,1,,33.516768,-117.155039,39949,CHADEMO J1772,CAR_DEALER
3195 N Naglee Rd,Tracy,95304,Public - Call ahead,Dealership business hours,,1,,,37.75990555387505,-121.4632051865082,39951,J1772,CAR_DEALER
30 Auto Center Dr,Tustin,92782,Public - Call ahead,Dealership business hours,,1,1,,33.72484,-117.799302,39952,CHADEMO J1772 J1772COMBO,CAR_DEALER
671 Orange Dr,Vacaville,95687,Public - Call ahead,Dealership business hours,,1,,,38.381441,-121.941218,39953,J1772,CAR_DEALER
24111 Creekside Rd,Valencia,91355,Public - Call ahead,Dealership business hours,,3,,,34.420546,-118.557774,39954,J1772,CAR_DEALER
3287 Sonoma Blvd,Vallejo,94590,Public - Call ahead,Dealership business hours,,1,,,38.118088,-122.255493,39955,J1772,CAR_DEALER
15722 Valley Park Ln,Victorville,92394,Public - Call ahead,Dealership business hours; contact 760-241-1700 for more information,,1,,,34.517883,-117.3219,39956,J1772,CAR_DEALER
830 S Ben Maddox Way,Visalia,93292,Public - Call ahead,Dealership business hours,,1,1,,36.32327,-119.27569,39957,CHADEMO J1772 J1772COMBO,CAR_DEALER
205 N Citrus St,West Covina,91791,Public - Call ahead,Dealership business hours,,1,1,,34.074227,-117.890899,39959,CHADEMO J1772,CAR_DEALER
4675 Viewridge Ave,San Diego,92123,Public,7am-8:30pm daily,,2,,,32.823912,-117.12114,40185,J1772,OFFICE_BLDG
4750 Kearny Mesa Rd,San Diego,92111,Public - Call ahead,Dealership business hours; customer use only,1,1,,,32.82408524,-117.1471252,40407,J1772 NEMA520,OFFICE_BLDG
500 Castro St,Mountain View,94041,Private,Fleet use only; available to public on weekends,,2,,,37.390383,-122.0827,41347,J1772,MUNI_GOV
4555 Great America Pkwy,Santa Clara,95054,Private,Tenant use only,,11,,,37.397144,-121.976831,41351,J1772,OFFICE_BLDG
2485 Augustine Dr,Santa Clara,95054,Private,Employee use only,,14,,,37.38237,-121.970806,41352,J1772,OFFICE_BLDG
881 Marsh St,San Luis Obispo,93401,Public,24 hours daily; pay lot,,2,,,35.279705,-120.6609,41526,J1772,PARKING_GARAGE
3835 Cross Creek Rd,Malibu,90265,Public,24 hours daily,,2,,,34.035802,-118.686393,43478,J1772,SHOPPING_CENTER
1199 E Beach,San Francisco,94129,Public,6am-12am daily,,2,,,37.806099,-122.449461,43526,J1772,NATL_PARK
46101 Fremont Blvd,Fremont,94538,Private,,,18,2,,37.488952,-121.948969,44017,CHADEMO J1772 J1772COMBO,OFFICE_BLDG
26531 Aliso Creek Rd,Aliso Viejo,92656,Public,24 hours daily,,2,,,33.577103,-117.723844,44400,J1772,
126 Mill St,Healdsburg,95448,Private,For employee use only,,4,,,38.6085938,-122.8688,45240,J1772,OFFICE_BLDG
200 Civic Plaza,Dublin,94568,Public,24 hours daily,,1,,,37.702909,-121.91835,45313,J1772,
115 Valley View Way,Sutter Creek,95685,Public,24 hours daily; pay lot,,2,,,38.379983,-120.807672,46136,J1772,TRAVEL_CENTER
1 Music Concourse Dr,San Francisco,94118,Public,Garage business hours; pay lot; Drivers must bring their own J1772 cordset for Level 1 charging,9,2,,,37.768766,-122.468341,46473,J1772 NEMA520,PAY_GARAGE
1132 N 7th St,San Jose,95112,Public,7am-6pm M-F,,12,,,37.36217972612609,-121.89953864152527,46482,J1772,UTILITY
30870 Russell Ranch Rd,Westlake Village,91362,Private,,,4,,,34.148413,-118.798832,46519,J1772,OFFICE_BLDG
101 California Dr,Burlingame,94010,Public - Call ahead,Dealership business hours,,1,,,37.57792,-122.341931,46709,J1772,CAR_DEALER
101 California Dr,Burlingame,94010,Private,,,1,,,37.57792,-122.341931,46710,J1772,CAR_DEALER
41 N 2nd St,Campbell,95008,Public,24 hours daily,,1,,,37.287593,-121.946908,46715,J1772,
6450 Dublin Ct,Dublin,94568,Public - Call ahead,Dealership business hours,,4,1,,37.702828,-121.911087,46721,CHADEMO J1772,CAR_DEALER
6450 Dublin Ct,Dublin,94568,Private,,,1,,,37.702828,-121.911087,46722,J1772,CAR_DEALER
1999 Citracado Pkwy,Escondido,92029,Public,24 hours daily,,2,,,33.11587,-117.11955,46723,J1772,RESTAURANT
2545 Auto Mall Pkwy,Fairfield,94533,Public - Call ahead,Dealership business hours,,2,1,,38.244614,-122.079181,46724,CHADEMO J1772 J1772COMBO,CAR_DEALER
2545 Auto Mall Pkwy,Fairfield,94533,Private,,,1,,,38.244614,-122.079181,46725,J1772,CAR_DEALER
44400 Indian Wells Ln,Indian Wells,92210,Public - Call ahead,24 hours daily; for guest use only,,2,,,33.72323,-116.324409,46729,J1772,HOTEL
3701 Conant St,Long Beach,90808,Private,Employee use only,,1,,,33.8234522,-118.1488717,46731,J1772,OFFICE_BLDG
5905 Wilshire Blvd,Los Angeles,90036,Public,Garage business hours,,5,,,34.063383,-118.35808,46733,J1772,MUSEUM
1377 Kettering Loop,Ontario,91761,Public - Call ahead,Dealership business hours,,1,1,,34.049006,-117.547161,46743,CHADEMO J1772 J1772COMBO,CAR_DEALER
1377 Kettering Loop,Ontario,91761,Private,,,1,,,34.049006,-117.547161,46744,J1772,CAR_DEALER
7368 Archibald Ave,Rancho Cucamonga,91730,Public,24 hours daily; must have MobileNow! App for payment; maximum session time of 4 hours,,1,,,34.120214,-117.593952,46972,J1772,LIBRARY
10500 Civic Center Dr,Rancho Cucamonga,91730,Public,24 hours daily; must use MobileNow! App for payment; maximum session time of 4 hours,,2,,,34.10303,-117.576,46973,J1772,MUNI_GOV
11780 Arrow Rt,Rancho Cucamonga,91730,Public,24 hours daily; must have MobileNow! App for payment; maximum session time of 4 hours,,1,,,34.100456,-117.54918,46974,J1772,OFFICE_BLDG
7484 Vineyard Ave,Rancho Cucamonga,91730,Public,6am-10pm daily; must use MobileNow! App for payment; maximum session time of 4 hours,,1,,,34.11787,-117.611,46976,J1772,PARK
5546 Beryl St,Rancho Cucamonga,91737,Public,6am-10pm daily; must have MobileNow! App for payment; maximum session time of 4 hours,,1,,,34.154033,-117.607446,46978,J1772,PARK
4200 Auto Plaza Dr,Capitola,95010,Public - Call ahead,Dealership business hours; Drivers must bring their own J1772 cordset for Level 1 charging,1,1,,,36.981884,-121.962228,47457,J1772 NEMA520,CAR_DEALER
4183 Village Dr,Yosemite National Park,95389,Public,24 hours daily,,1,,,37.74656,-119.584,47464,J1772,NATL_PARK
1831 Auto Center Dr,Antioch,94509,Private,,,1,,,38.007799,-121.832042,47590,J1772,CAR_DEALER
2800 Pacheco Rd,Bakersfield,93313,Private,,,1,,,35.310723,-119.035324,47591,J1772,CAR_DEALER
6501 Auto Center Dr,Buena Park,90621,Private,,,1,,,33.865497,-117.995215,47592,J1772,CAR_DEALER
1505 E 223rd St,Carson,90745,Private,Service center use only,,1,,,33.824968,-118.245675,47593,J1772,CAR_DEALER
68177 Kyle Rd,Cathedral City,92234,Private,,,1,,,33.78414,-116.471,47594,J1772,CAR_DEALER
18707 Studebaker Rd,Cerritos,90703,Private,,,1,,,33.861544,-118.100471,47595,J1772,CAR_DEALER
575 Manzanita Ave,Chico,95926,Private,,,1,,,39.756332,-121.843715,47596,J1772,CAR_DEALER
17320 E Gale Ave,City of Industry,91748,Private,,,1,,,33.997621,-117.928216,47597,J1772,CAR_DEALER
370 W Herndon Ave,Clovis,93612,Private,,,1,,,36.836818,-119.717629,47598,J1772,CAR_DEALER
1500 Collins Ave,Colma,94014,Private,,,1,,,37.671267,-122.463541,47599,J1772,CAR_DEALER
1290 Concord Ave,Concord,94520,Private,,,1,,,37.980192,-122.050128,47600,J1772,CAR_DEALER
2575 Wardlow Rd,Corona,92882,Private,,,1,,,33.88309,-117.615292,47601,J1772,CAR_DEALER
2850 Harbor Blvd,Costa Mesa,92626,Private,,,1,,,33.675397,-117.918684,47602,J1772,CAR_DEALER
5009 Chiles Rd,Davis,95618,Private,,,1,,,38.55252,-121.691555,47603,J1772,CAR_DEALER
7321 Firestone Blvd,Downey,90241,Private,,,1,,,33.9473,-118.151166,47604,J1772,CAR_DEALER
1434 Buena Vista St,Duarte,91010,Private,,,1,,,34.136553,-117.975944,47605,J1772,CAR_DEALER
1170 W Main St,El Cajon,92020,Private,,,1,,,32.795896,-116.976156,47607,J1772,CAR_DEALER
1546 Auto Park Way,Escondido,92029,Private,,,1,,,33.116492,-117.106837,47609,J1772,CAR_DEALER
601 7th St,Eureka,95501,Private,,,1,,,40.800562,-124.164405,47610,J1772,CAR_DEALER
3195 N Naglee Rd,Tracy,95304,Private,,,1,,,37.75990555387505,-121.4632051865082,47646,J1772,CAR_DEALER
30 Auto Center Dr,Tustin,92782,Private,,,1,,,33.72484,-117.799302,48063,J1772,CAR_DEALER
671 Orange Dr,Vacaville,95687,Private,,,1,,,38.381441,-121.941218,48064,J1772,CAR_DEALER
3287 Sonoma Blvd,Vallejo,94590,Private,,,1,,,38.118088,-122.255493,48066,J1772,CAR_DEALER
5425 Van Nuys Blvd,Sherman Oaks,91401,Private,,,1,,,34.168824,-118.449059,48067,J1772,CAR_DEALER
15722 Valley Park Ln,Victorville,92394,Private,,,1,,,34.517883,-117.3219,48068,J1772,CAR_DEALER
830 S Ben Maddox Way,Visalia,93292,Private,,,1,,,36.32327,-119.27569,48069,J1772,CAR_DEALER
205 N Citrus St,West Covina,91791,Private,,,1,,,34.074227,-117.890899,48071,J1772,CAR_DEALER
3550 Cahuenga Blvd W,Los Angeles,90068,Private,,,1,,,34.133446,-118.356601,48120,J1772,CAR_DEALER
1675 Auto Center Dr,Merced,95340,Private,,,1,,,37.305891,-120.502428,48122,J1772,CAR_DEALER
11000 Sepulveda Blvd,Mission Hills,91345,Private,,,1,,,34.269809,-118.466606,48123,J1772,CAR_DEALER
4530 McHenry Ave,Modesto,95356,Private,,,1,,,37.705119,-120.99471,48124,J1772,CAR_DEALER
9440 Autoplex Dr,Montclair,91763,Private,,,1,,,34.082404,-117.694876,48125,J1772,CAR_DEALER
635 W Washington Blvd,Los Angeles,90015,Private,,,1,,,34.035168,-118.273229,48129,J1772,CAR_DEALER
510 Soscol Ave,Napa,94559,Private,,,1,,,38.292706,-122.277767,48130,J1772,CAR_DEALER
1120 W Capitol Expy,San Jose,95136,Private,,,1,,,37.275144,-121.877656,48131,J1772,CAR_DEALER
4855 Stevens Creek Blvd,Santa Clara,95051,Private,,,1,,,37.323569,-121.988027,48139,J1772,CAR_DEALER
1001 E Battles Rd,Santa Maria,93454,Public - Call ahead,Dealership business hours,,2,,,34.931796,-120.420639,48141,J1772,CAR_DEALER
2325 1st St,Simi Valley,93065,Private,,,1,,,34.277324,-118.778957,48150,J1772,CAR_DEALER
2700 National City Blvd,National City,91950,Private,,,1,,,32.659001,-117.100836,48154,J1772,CAR_DEALER
1801 Auto Center Dr,Oxnard,93036,Private,,,1,,,34.22771,-119.150217,48157,J1772,CAR_DEALER
451 Auto Center Dr,Palmdale,93551,Private,Service center use only,,2,,,34.591173,-118.138184,48158,J1772,CAR_DEALER
14100 Poway Rd,Poway,92064,Private,,,1,,,32.956772,-117.025943,48160,J1772,CAR_DEALER
300 E Cypress Ave,Redding,96002,Private,,,1,,,40.571632,-122.36654,48161,J1772,CAR_DEALER
1665 Industrial Park Ave,Redlands,92374,Private,,,1,,,34.065387,-117.212007,48162,J1772,CAR_DEALER
1 Bair Island Rd,Redwood City,94063,Private,,,1,,,37.495963,-122.227322,48163,J1772,CAR_DEALER
3277 Auto Plaza,Richmond,94806,Private,,,1,,,37.985253,-122.32124,48164,J1772,CAR_DEALER
6030 Sycamore Canyon Blvd,Riverside,92507,Private,,,1,,,33.941878,-117.297603,48165,J1772,CAR_DEALER
2820 Auburn Blvd,Sacramento,95821,Private,,,1,,,38.631393,-121.396604,48166,J1772,CAR_DEALER
735 Showcase Dr S,San Bernardino,92408,Private,,,1,,,34.074378,-117.298,48168,J1772,CAR_DEALER
8118 Clairemont Mesa Blvd,San Diego,92111,Private,,,1,,,32.833179,-117.147384,48170,J1772,CAR_DEALER
4433 Mission Bay Dr,San Diego,92109,Private,,,1,,,32.802475,-117.215269,48171,J1772,CAR_DEALER
8330 Indiana Ave,Riverside,92504,Private,,,1,,,33.925469,-117.419673,48174,J1772,CAR_DEALER
600 Automall Dr,Roseville,95661,Private,,,1,,,38.752198,-121.256452,48175,J1772,CAR_DEALER
216 E School St,Cotati,94931,Public,24 hours daily,,1,,,38.32398,-122.709121,48179,J1772,
16444 S Highland Ave,Fontana,92336,Private,,,1,,,34.135345,-117.445732,48182,J1772,CAR_DEALER
5580 N Blackstone Ave,Fresno,93710,Private,,,1,,,36.818622,-119.789796,48184,J1772,CAR_DEALER
1670 W Redondo Beach Blvd,Gardena,90247,Private,,,1,,,33.889201,-118.307028,48186,J1772,CAR_DEALER
727 S Brand Blvd,Glendale,91204,Private,,,1,,,34.137054,-118.25536,48188,J1772,CAR_DEALER
200 Carriage Cir,Hemet,92545,Private,,,1,,,33.741163,-117.031718,48192,J1772,CAR_DEALER
17331 Beach Blvd,Huntington Beach,92647,Private,,,1,,,33.71069,-117.989861,48195,J1772,CAR_DEALER
3333 Fairview Rd,Costa Mesa,92626,Private,Employee use only,,4,,,33.6915,-117.9095,48352,J1772,OFFICE_BLDG
3350 Harbor Blvd,Costa Mesa,92626,Public,9am-5pm M-F,,2,,,33.69276,-117.9183,48353,J1772,OFFICE_BLDG
2601 S Figueroa St,Los Angeles,90007,Public,9am-5pm M-F,,2,,,34.02828,-118.2778,48358,J1772,OFFICE_BLDG
9620 Airport Blvd,Los Angeles,90045,Public,24 hours daily; pay lot; for guest use only,,2,,,33.9492,-118.385,48362,J1772,HOTEL
74855 Country Club Dr,Palm Desert,92260,Public,24 hours daily; see valet for access,,51,,,33.75562,-116.361,48365,J1772,HOTEL
12076 Los Osos Valley Rd,San Luis Obispo,93401,Public,8am-11pm daily,,6,,,35.25211177248671,-120.68597469444276,48368,J1772,SHOPPING_CENTER
1719 Wilshire Blvd,Santa Monica,90403,Public,,2,2,,,34.029456,-118.485814,48705,J1772,
20625 Hawthorne Blvd,Torrance,90503,Public,,2,2,,,33.842487,-118.354006,48710,J1772,
Mark & Warren St,Moffett Field,94035,Private,Also accessible through chip keys,,1,,,37.416283,-122.059908,48725,J1772,RESEARCH_FACILITY
2401 S Atlantic Blvd,Monterey Park,91754,Private,Service center use only,,2,,,34.036123,-118.148995,48727,J1772,CAR_DEALER
535 Harbor St,Morro Bay,93442,Public,24 hours daily; MobileNOW! Phone application,,1,,,35.36725,-120.847,48728,J1772,MUNI_GOV
1 Civic Center Cir,Brea,92821,Public,Garage business hours; 4 hour parking limit; pay lot,,3,,,33.91743,-117.889,48823,J1772,PARKING_GARAGE
1129 Pacific St,San Luis Obispo,93401,Public - Credit card at all times,24 hours daily; free for customer use,,1,,,35.28059,-120.657,48836,J1772,OFFICE_BLDG
782 Davis Ct,Vacaville,95687,Public,24 hours daily; Drivers must bring their own J1772 cordset for Level 1 charging,3,4,1,1 SP Inductive,38.34962,-121.987,48838,CHADEMO J1772 NEMA520 TESLA,PARKING_LOT
700 W Commonwealth Ave,Fullerton,92832,Private,Service center use only,,2,,,33.869725,-117.938109,48963,J1772,CAR_DEALER
11208 Azuza Ct,Rancho Cucamonga,91730,Public,Lot business hours; parking permit required; must have MobileNow! App for payment; maximum session time of 4 hours,,2,,,34.09177,-117.559,48979,J1772,PARKING_LOT
1990 E Gettysburg Ave,Fresno,93726,Private,8am-5pm every other F,,6,,,36.801411,-119.7881,49119,J1772,MUNI_GOV
221 W Pine St,Lodi,95240,Public,24 hours daily,,2,,,38.13437,-121.2884,49122,J1772,PARKING_LOT
1305 S Mountain Ave,Monrovia,91016,Public - Call ahead,Dealership business hours; for customer use only,,3,,,34.13867,-117.9869,49127,J1772,CAR_DEALER
4124 Potrero Rd,Newbury Park,91320,Private,,,1,,,34.153742,-118.964733,49129,J1772,NATL_PARK
4126 Potrero Rd,Newbury Park,91320,Public,Park visitor hours,,1,,,34.152947,-118.965356,49130,J1772,NATL_PARK
Terminal Way,Ontario,91761,Public,24 hours daily; pay lot,,6,,,34.0616,-117.5935,49131,J1772,AIRPORT
4105 University S Dr,Walnut,91768,Public,24 hours daily; parking permit required,,2,,,34.049341,-117.82341,49133,J1772,COLLEGE_CAMPUS
4241 X St,Sacramento,95817,Public,24 hours daily,,10,,,38.553545,-121.4561,49134,J1772,HOSPITAL
14306 Park Ave,Victorville,92392,Public,24 hours daily; leave cell phone number visible on dashboard in case of emergency,,7,,,34.511036,-117.325348,49149,J1772,PARKING_LOT
1624 S Canyon Way,Colfax,95713,Public,24 hours daily,,2,1,,39.084259,-120.956,49255,J1772 J1772COMBO,CAR_DEALER
23 Russell Blvd,Davis,95616,Public,24 hours daily; maximum session time of 2 hours,,2,,,38.546699,-121.7461,49329,J1772,MUNI_GOV
1947 Galileo Ct,Davis,95618,Public,8am-5pm daily; no overnight parking; contact 530-757-3650 for more information,,2,,,38.54246,-121.7279,49330,J1772,MUNI_GOV
23525 Civic Center Way,Malibu,90265,Public,24 hours daily,,3,,,34.037227,-118.689023,49333,J1772,MUNI_GOV
411 Central Ave,Salinas,93901,Public,24 hours daily,,2,,,36.673856,-121.665804,49336,J1772,
10 W Trimble Rd,San Jose,95131,Public,24 hours daily; for guest use only,,2,,,37.38514,-121.9288,49342,J1772,HOTEL
555 Santa Clara St,Vallejo,94590,Public,24 hours daily; maximum session time of 3 hours,,2,,,38.1022,-122.261,49350,J1772,MUNI_GOV
9200 W Sunset Blvd,West Hollywood,90069,Private,Tenant use only,,3,,,34.08983,-118.393,49571,J1772,PARKING_GARAGE
2600 Temple Ave,Long Beach,90806,Private,,,38,,,33.806192,-118.158913,49981,J1772,FLEET_GARAGE
685 E Middlefield Rd,Mountain View,94043,Public,24 hours daily,,4,,,37.39120483,-122.0531,49985,J1772,HOSPITAL
650 E El Camino Real,Sunnyvale,94087,Private,For service center use only,,2,,,37.360056,-122.024212,50000,J1772,CAR_DEALER
888 Howard St,San Francisco,94103,Public,24 hours daily; pay lot; for guest use only,,2,,,37.782079,-122.404764,50011,J1772,HOTEL
400 E Green St,Pasadena,91101,Public,24 hours daily; pay lot,,6,,,34.144224,-118.142129,50153,J1772,PARKING_GARAGE
135 N Los Robles Ave,Pasadena,91101,Public,24 hours daily; pay lot,,3,,,34.148186,-118.141776,50154,J1772,PARKING_GARAGE
3850 State St,Santa Barbara,93105,Public,24 hours daily,,2,,,34.441146,-119.748892,50157,J1772,HOTEL
10040 Old Depot Plaza Rd,Chatsworth,91311,Public,24 hours daily; pay lot,,3,,,34.253049,-118.598675,50424,J1772,PARKING_LOT
1 Airport Dr,Oakland,94621,Public,24 hours daily; pay lot,,2,,1 SP Inductive,37.7153,-122.2145,50736,J1772,AIRPORT
400 River Rd,Salinas,93908,Public,Park business hours; pay lot,,1,,,36.594595,-121.624692,50742,J1772,OTHER_ENTERTAINMENT
721 Cliff Dr,Santa Barbara,93109,Public,Staff only 7am-10:30am; public use 10:30am-10pm,,4,,,34.40641,-119.697,50792,J1772,COLLEGE_CAMPUS
28690 Mercedes St,Temecula,92590,Public,24 hours daily,,2,,,33.49353,-117.146,50799,J1772,PARKING_GARAGE
650 Page Mill Rd,Palo Alto,94304,Public - Call ahead,24 hours daily; for guest use only; see security to access,,2,,,37.782284,-122.418185,50949,J1772,OFFICE_BLDG
1395 Van Ness Ave,San Francisco,94109,Public,Dealership business hours,,1,,,37.788127,-122.422143,50969,J1772,CAR_DEALER
1395 Van Ness Ave,San Francisco,94109,Private,,,1,,,37.788127,-122.422143,50970,J1772,CAR_DEALER
1605 Tilia St,Davis,95616,Public,24 hours daily,,2,,,38.54215,-121.771,51002,J1772,COLLEGE_CAMPUS
3825 Union Rd,Hollister,95023,Public,24 hours daily,,2,,,36.841817,-121.457305,51053,J1772,
6501 Carnelian St,Rancho Cucamonga,91701,Public,6am-10pm daily; must use MobileNow! App for payment; maximum session time of 4 hours,,1,,,34.136245,-117.61613,51131,J1772,PARK
1364 Blue Oaks Blvd,Roseville,95678,Public,24 hours daily,,2,,,38.797142,-121.31234,51204,J1772,OFFICE_BLDG
160 S 10th St,Colton,92324,Private,Employee use only,,2,,,34.063087,-117.321885,51208,J1772,MUNI_GOV
8973 Grant Line Rd,Elk Grove,95624,Public,24 hours daily,,1,,,38.431454,-121.299343,51210,J1772,PARKING_LOT
905 Leidesdorff St,Folsom,95630,Public,24 hours daily; maximum session time of three hours,,2,,,38.676631,-121.179577,51211,J1772,PARKING_GARAGE
428 Hudson St,Healdsburg,95448,Public,11am-5pm Th-M; see front desk for passcode,,1,,,38.606405,-122.862269,51214,J1772,BREWERY_DISTILLERY_WINERY
1900 14th St,Sacramento,95811,Public,24 hours daily,,2,,,38.568681,-121.492654,51234,J1772,STATE_GOV
400 Capital Mall,Sacramento,95814,Public,Garage business hours; pay lot,,5,,,38.578648,-121.50238,51236,J1772,OFFICE_BLDG
8326 Century Park Ct,San Diego,92123,Private,Employee use only,,156,,,32.8234943,-117.1436773,51240,J1772,PARKING_LOT
10918 Brockway Rd,Truckee,96161,Public,24 hours daily; for guest use only; see front desk for access,,3,,,39.324006,-120.169783,51252,J1772,HOTEL
695 Harbor St,Morro Bay,93442,Public,24 hours daily; Also accepts MobileNOW! Phone application,,1,,,35.366911,-120.845475,51515,J1772,MUNI_GOV
73510 Fred Waring Dr,Palm Desert,92260,Public,24 hours daily,,4,,,33.730812,-116.38184,51516,J1772,MUNI_GOV
8794 Lions St,Rancho Cucamonga,91730,Public,Lot business hours; must have MobileNow! App for payment; maximum session time of 4 hours,,1,,,34.093578,-117.605249,51518,J1772,FLEET_GARAGE
73710 Fred Waring Dr,Palm Desert,92260,Public,24 hours daily,,2,,,33.729855,-116.379108,51716,J1772,MUNI_GOV
780 E Brokaw Rd,San Jose,95112,Private,Service center use only,,1,,,37.381081,-121.905304,51781,J1772,CAR_DEALER
2599 Newport Blvd,Costa Mesa,92626,Public,24 hours daily,,2,,,33.663495,-117.899372,51912,J1772,PLACE_OF_WORSHIP
1656 Union St,Eureka,95501,Private,Employee use only,,1,,,40.791885,-124.175027,51913,J1772,OFFICE_BLDG
310 W Elm St,Lodi,95240,Public,24 hours daily,,1,,,38.135267,-121.276865,51919,J1772,PARKING_LOT
125 S Hutchins St,Lodi,95240,Public,24 hours daily,,1,,,38.132382,-121.280312,51920,J1772,REC_SPORTS_FACILITY
1345 W Kettleman Ln,Lodi,95242,Public,24 hours daily,,1,,,38.115528,-121.288943,51921,J1772,OTHER
50 N Sacramento St,Lodi,95240,Public,24 hours daily,,1,,,38.134789,-121.27182,51922,J1772,PARKING_GARAGE
201 W Locust St,Lodi,95240,Public,24 hours daily,,1,,,38.137038,-121.275506,51923,J1772,LIBRARY
1400 Highland Ave,Manhattan Beach,90266,Public,3pm-12am daily; two hour parking limit,,4,,,33.886925,-118.409726,51926,J1772,MUNI_GOV
314 Stanford Ave,Palo Alto,94306,Public,24 hours daily,,2,,,37.430039,-122.147944,51933,J1772,STREET_PARKING
505 E Charleston Rd,Palo Alto,94306,Public,24 hours daily,,1,,,37.419672,-122.112723,51934,J1772,PLACE_OF_WORSHIP
30800 Palos Verdes Dr E,Rancho Palos Verdes,90275,Public,7am-10pm daily,,2,,,33.734966,-118.333329,51937,J1772,COLLEGE_CAMPUS
5500 University Pkwy,San Bernardino,92407,Public,24 hours daily,,3,,,34.181225,-117.323647,51945,J1772,COLLEGE_CAMPUS
181 E Via Verde,San Dimas,91773,Public,24 hours daily,,2,,,34.077429,-117.81619,51947,J1772,PARKING_LOT
15401 USS New Jersey,Los Angeles,90732,Public,24 hours daily,,2,,,33.777672,-118.302516,51951,J1772,COLLEGE_CAMPUS
39 Trellis Dr,San Rafael,94903,Public,24 hours daily,,2,,,38.007147,-122.554769,51952,J1772,SCHOOL
223 Castillo St,Santa Barbara,93101,Public - Call ahead,24 hours daily; guest use only,,1,,,34.409885,-119.69729,51954,J1772,INN
1735 S Bradley Rd,Santa Maria,93455,Public,24 hours daily,,1,,,34.921309,-120.422938,51956,J1772,CAR_DEALER
100 Via Juana Ln,Santa Ynez,93460,Public - Call ahead,24 hours daily; for guest use only,,2,,,34.606071,-120.093694,51959,J1772,MUNI_GOV
3400 E Highway 246,Santa Ynez,93460,Public,24 hours daily; see valet for access,,10,,,34.610085,-120.086464,51960,J1772,PARKING_GARAGE
999 Enchanted Way,Simi Valley,93065,Public,24 hours daily; obtain code for use at the front desk,,1,,,34.283594,-118.781459,52096,J1772,HOTEL
4800 Oak Grove Dr,Pasadena,91109,Private,Also accessible through chip keys,,1,,,34.198642,-118.174611,52465,J1772,RESEARCH_FACILITY
Goldstone Rd,Fort Irwin,92310,Private,NASA fleet use only,,1,,,35.262442,-116.713878,52466,J1772,RESEARCH_FACILITY
11301 Wilshire Blvd,Los Angeles,90073,Private,VA fleet use only,,1,,,34.053085,-118.4529,52467,J1772,HOSPITAL
3350 La Jolla Village Dr,San Diego,92161,Private,VA fleet use only,,1,,,32.8752051208875,-117.232696293323,52468,J1772,HOSPITAL
2901 E Alejo,Palm Springs,92264,Public,24 hours daily,,1,,,33.829433,-116.512914,52524,J1772,PARK
2300 E Baristo Rd,Palm Springs,92262,Public,24 hours daily,,2,,,33.819685,-116.521241,52525,J1772,OTHER_ENTERTAINMENT
3200 E Tahquitz Canyon Way,Palm Springs,92264,Public,24 hours daily,,2,,,33.824715,-116.511192,52526,J1772,MUNI_GOV
3111 E Tahquitz Canyon Way,Palm Springs,92264,Public,24 hours daily,,2,,,33.822673,-116.51192,52527,J1772,MUNI_GOV
277 N Avenida Caballeros,Palm Springs,92262,Public,24 hours daily,,4,,,33.825249,-116.536722,52528,J1772,PARKING_GARAGE
1695 N Sunrise Way,Palm Springs,92262,Public,24 hours daily,,2,,,33.843822,-116.529304,52603,J1772,PARKING_LOT
Indian Canyon Dr & Baristo Rd,Palm Springs,92264,Public,24 hours daily,,2,,,33.819689,-116.545883,52604,J1772,PARKING_GARAGE
425 N Civic Dr,Palm Springs,92262,Public,24 hours daily,,1,,,33.828745,-116.515654,52605,J1772,FLEET_GARAGE
3400 E Tahquitz Canyon Way,Palm Springs,92262,Public,24 hours daily; pay lot,,4,,,33.821773,-116.51006,52606,J1772,AIRPORT
480 Tramview Rd,Palm Springs,92262,Public,24 hours daily,,2,,,33.867738,-116.552297,52607,J1772,MUNI_GOV
300 S Sunrise Way,Palm Springs,92262,Public,24 hours daily,,1,,,33.818721,-116.526678,52608,J1772,LIBRARY
233 S Palm Canyon Dr,Palm Springs,92262,Public,24 hours daily,,2,,,33.820689,-116.547468,52610,J1772,MUNI_GOV
Indian Canyon Dr & Tram Rd,Palm Springs,92262,Public,24 hours daily,,2,,,33.858372,-116.558122,52611,J1772,MUNI_GOV
Tachevah & Via Miraleste,Palm Springs,92262,Public,24 hours daily,,1,,,33.837311,-116.540856,52612,J1772,PARK
1960 Squaw Valley Rd,Olympic Valley,96146,Public,24 hours daily; for guest use only; see valet for access,,4,,,39.19591,-120.236254,52640,J1772,HOTEL
2 Auto Center Dr,Tustin,92782,Public,Dealership business hours; Ford vehicle use only,,1,,,33.726886,-117.800108,52641,J1772,CAR_DEALER
1925 Las Virgenes,Calabasas,91302,Public,Dawn to dusk daily,,2,,,34.104235,-118.711535,52722,J1772,PARK
675 Texas St,Fairfield,94533,Public,24 hours daily,,8,,,38.24922,-122.041825,52737,J1772,MUNI_GOV
1600 Holloway Ave,San Francisco,94132,Public,24 hours daily; permit required; maximum session time of 4 hours,,9,,,37.720848,-122.477023,52748,J1772,COLLEGE_CAMPUS
14205 Meridian Pkwy,Riverside,92518,Public,7am-4:30pm daily,,2,,,33.911161,-117.290022,52899,J1772,UTILITY
300 Richards Blvd,Sacramento,95811,Public,24 hours daily,,2,,,38.596397,-121.49862,53072,J1772,
200 Auburn Folsom Rd,Auburn,95603,Private,Employee use only,,2,,,38.894693,-121.077081,53365,J1772,OFFICE_BLDG
11601 Blocker Dr,Auburn,95603,Public,24 hours daily,,5,,,38.9032,-121.083857,53366,J1772,PARKING_LOT
La Rue Rd and Garrod Dr,Davis,95616,Public,24 hours daily,,9,,,38.533624,-121.759346,53373,J1772,COLLEGE_CAMPUS
555 Five Cities Dr,Pismo Beach,93449,Public,24 hours daily,,2,,,35.136076,-120.623728,53381,J1772,GROCERY
300 Capitol Mall,Sacramento,95814,Public,24 hours daily; pay lot,4,4,,,38.57894,-121.503857,53383,J1772 NEMA1450,PAY_GARAGE
2886 Mission Dr,Solvang,93463,Public,24 hours daily,,2,,,34.605901,-120.101372,53406,J1772,GROCERY
3635 Fashion Way,Torrance,90503,Public,24 hours daily; for guest use only; pay parking,,2,,,33.835218,-118.350231,53408,J1772,HOTEL
1201 Auto Center Dr,Ontario,91761,Public,Dealership business hours,,3,,,34.051442,-117.543902,53676,J1772,CAR_DEALER
171 N Raymond Ave,Pasadena,91103,Public,24 hours daily; pay lot,,3,,,34.148874,-118.148914,53677,J1772,PARKING_GARAGE
292 N G St,San Bernardino,92410,Private,Service center use only,,1,,,34.104101,-117.300572,53680,J1772,CAR_DEALER
4754 McHenry Ave,Modesto,95356,Private,Dealership use only,,2,,,37.709199,-120.993895,53718,J1772,CAR_DEALER
1350 E Yorba Linda Blvd,Placentia,92870,Public - Call ahead,Dealership business hours; for customer use only,,1,,,33.887622,-117.838402,53719,J1772,CAR_DEALER
2210 South Shore Center,Alameda,94501,Public,6am-12am daily,,2,,,37.756871,-122.253088,53723,J1772,SHOPPING_CENTER
2001 Oak St,Bakersfield,93301,Private,Service center use only; for Ford use only if chargers are not being used by service center,,1,,,35.377249,-119.040014,53895,J1772,CAR_DEALER
6211 Beach Blvd,Buena Park,90621,Private,Service center and customer use only,,8,,,33.871062,-117.999036,53896,J1772,CAR_DEALER
1700 Auto Park Way,Escondido,92029,Public - Call ahead,Dealership business hours,,1,,,33.116897,-117.10593,53900,J1772,CAR_DEALER
4800 N US Highway 101,Eureka,95503,Public - Call ahead,Dealership business hours,,1,,,40.807267,-124.114418,53901,J1772,CAR_DEALER
150 Carriage Cir,Hemet,92545,Public - Call ahead,Dealership business hours,,1,,,33.737588,-117.030106,53903,J1772,CAR_DEALER
350 Carriage Cir,Hemet,92545,Private,,,1,,,33.742771,-117.029181,53904,J1772,CAR_DEALER
16800 Aston St,Irvine,92606,Public,24 hours daily; Also accepts Mobile Now,,2,,,33.700072,-117.842978,53907,J1772,OFFICE_BLDG
3333 Foothill Blvd,La Crescenta,91214,Private,Service center use only,,2,,,34.231802,-118.25136,53908,J1772,CAR_DEALER
3615 Lemon Grove Ave,Lemon Grove,91945,Public - Call ahead,Dealership business hours; see receptionist for access,,1,,,32.744765,-117.030389,53909,J1772,CAR_DEALER
3801 W Temple Ave,Pomona,91768,Public,24 hours daily; parking permit required for use,,24,,,34.051634,-117.820001,53910,J1772,COLLEGE_CAMPUS
400 Automall Dr,Roseville,95661,Private,Service center use only; Drivers must bring their own J1772 cordset for Level 1 charging,1,1,,,38.75073,-121.253984,53911,J1772 NEMA1450,CAR_DEALER
700 Automall Dr,Roseville,95661,Private,Service center use only,,1,,,38.751057,-121.258828,53912,J1772,CAR_DEALER
4570 Mission Bay Dr,San Diego,92109,Public - Call ahead,Dealership business hours; Ford vehicle use only,,2,,,32.80377,-117.218255,53915,J1772,CAR_DEALER
14600 Catalina St,San Leandro,94577,Public,24 hours daily,,2,,,37.692678,-122.171053,53917,J1772,UTILITY
1111 Marina Blvd,San Leandro,94577,Private,,,1,,,37.711856,-122.16108,53918,J1772,CAR_DEALER
1035 E Battles Rd,Santa Maria,93454,Private,For service center use only,,2,,,34.932131,-120.419361,53920,J1772,CAR_DEALER
700 E Betteravia Rd,Santa Maria,93455,Public - Call ahead,Dealership business hours,,1,,,34.922993,-120.423064,53921,J1772,CAR_DEALER
26895 Ynez Rd,Temecula,92591,Private,Service center use only,,1,,,33.512012,-117.15432,53922,J1772,CAR_DEALER
3810 Thousand Oaks Blvd,Thousand Oaks,91362,Public - Call ahead,Dealership business hours; for customer use only,,1,,,34.1629744,-118.8282546,53923,J1772,CAR_DEALER
1119 E Monte Vista,Vacaville,95688,Public,24 hours daily,,2,,,38.361235,-121.975962,53927,J1772,MUNI_GOV
5949 Van Nuys Blvd,Van Nuys,91401,Private,Service center use only,,8,,,34.178786,-118.448808,53928,J1772,CAR_DEALER
5855 Van Nuys Blvd,Van Nuys,91401,Private,Service center use only,,2,,,34.17717,-118.449689,53929,J1772,CAR_DEALER
450 W Vista Way,Vista,92083,Public - Call ahead,Dealership business hours; for Ford vehicles only,,2,,,33.196108,-117.250815,53930,J1772,CAR_DEALER
6133 Topanga Canyon Blvd,Woodland Hills,91367,Private,Service center use only,,2,,,34.182338,-118.606363,53933,J1772,CAR_DEALER
655 N Central Ave,Glendale,91203,Public,24 hours daily,,2,,,34.155502,-118.258897,55814,J1772,
2524 Harbor Blvd,Costa Mesa,92626,Public - Call ahead,Dealership business hours,,4,,,33.664351,-117.918567,60081,J1772,CAR_DEALER
675 Charles E Young Dr N,Los Angeles,90095,Private,For UCLA staff and students only,,28,,,34.068005,-118.444049,60116,J1772,COLLEGE_CAMPUS
221 Westwood Plaza,Los Angeles,90077,Private,For UCLA staff and students only; permit required,,1,1,,34.072975,-118.444801,60124,CHADEMO J1772,COLLEGE_CAMPUS
221 Westwood Plaza,Los Angeles,90077,Public,"7am-5pm M-Th, 7am-12pm F, 8am-1pm Sat; permit required for use",,,1,,34.072975,-118.444801,60125,CHADEMO,COLLEGE_CAMPUS
555 Westwood Plaza,Los Angeles,90095,Public,"For UCLA staff, students and visitors",,4,,,34.068375,-118.445041,60128,J1772,COLLEGE_CAMPUS
330 De Neve Dr,Los Angeles,90024,Private,For UCLA staff and students only; Drivers must bring their own J1772 cordset for Level 1 charging,17,4,,,34.071223,-118.45186,60131,J1772 NEMA515,COLLEGE_CAMPUS
350 Automall Dr,Roseville,95661,Public - Call ahead,Dealership business hours,,6,,,38.749055,-121.254379,60179,J1772,CAR_DEALER
2400 National City Blvd,National City,91950,Public - Call ahead,Dealership business hours; for customer use only,1,1,,,32.661406,-117.102032,60180,J1772 NEMA520,CAR_DEALER
718 San Pablo Ave,Albany,94706,Private,Service center use only,,1,,,37.893607,-122.300246,60183,J1772,CAR_DEALER
45000 Pechanga Pkwy,Temecula,92592,Public,24 hours daily,,10,,,33.458106,-117.107647,60194,J1772,HOTEL
212 7th St,Eureka,95501,Private,Service center use only,,2,,,40.79961,-124.168152,60197,J1772,CAR_DEALER
301 S Hope Ave,Santa Barbara,93105,Private,Dealership business hours,,4,1,,34.43524,-119.747987,60200,CHADEMO J1772,CAR_DEALER
3705 Corby Ave,Santa Rosa,95407,Private,Dealership business hours,,2,,,38.40322446729097,-122.7176866526398,60227,J1772,CAR_DEALER
895 W Shaw Ave,Clovis,93612,Private,,,1,,,36.809433,-119.729574,60228,J1772,CAR_DEALER
18605 Studebaker Rd,Cerritos,90703,Private,Service center use only; Drivers must bring their own J1772 cordset for Level 1 charging,2,2,,,33.861596,-118.099976,60238,J1772 NEMA520,CAR_DEALER
1250 Auto Center Dr,Petaluma,94952,Private,,,1,,,38.267202,-122.665068,60339,J1772,CAR_DEALER
5805 Owens Dr,Pleasanton,94588,Public,24 hours daily,,2,,,37.700176,-121.892147,60677,J1772,
301 S Walnut Ave,San Dimas,91773,Public,24 hours daily,,3,,1 SP Inductive,34.104155,-117.803402,60720,J1772,MUNI_GOV
6151 S St,Sacramento,95817,Public,24 hours daily,,19,,,38.553131,-121.434296,60857,J1772,UTILITY
701 First Ave,Sunnyvale,94089,Private,Employee use only; Drivers must bring their own J1772 cordset for Level 1 charging,19,123,,,37.418242,-122.025107,61449,J1772 NEMA520,OFFICE_BLDG
9520 Castillo Dr,San Simeon,93452,Public,24 hours daily; for guest use only; see front desk for access,,1,,,35.61477,-121.145461,61528,J1772,HOTEL
32039 Agoura Rd,Westlake Village,91361,Public,24 hours daily; free for hotel and restaurant guests,,1,,,34.148044,-118.818336,61532,J1772,HOTEL
13620 Highway 99,Chico,95973,Private,Employee and client use only,,2,,,39.796693,-121.901589,61766,J1772,OFFICE_BLDG
5250 Highway 9,Felton,95018,Public - Call ahead,9am-5pm daily; reservation required for use,,1,,,37.039479,-122.068751,61767,J1772,HOTEL
1885 Auto Park Pl,Chula Vista,91911,Public - Call ahead,Dealership business hours,,1,,,32.595542,-117.02529,61791,J1772,CAR_DEALER
1885 Auto Park Pl,Chula Vista,91911,Private,,,1,,,32.595542,-117.02529,61792,J1772,CAR_DEALER
1551 N Peach Ave,Fresno,93727,Public,24 hours daily; complimentary for hotel guests,,2,,,36.764142,-119.718394,61814,J1772,HOTEL
5010 N Woodrow Ave,Fresno,93710,Public,Lot business hours; pay lot,,4,2,,36.810694,-119.741239,61815,CHADEMO J1772,COLLEGE_CAMPUS
155 Grand Ave,Oakland,94612,Private,Restricted to garage hours; pay lot,4,2,,,37.810716,-122.263905,61854,J1772 NEMA515,PAY_GARAGE
2131 Convention Center Way,Ontario,91764,Public,,2,2,,,34.06729,-117.60417,61874,J1772,
350 Industrial Way,Woodland,95776,Public,24 hours daily,,2,,,38.679225,-121.753508,62045,J1772,FLEET_GARAGE
101 Fort Mason Dr,San Francisco,94123,Private,,,2,,,37.804677,-122.428903,62068,J1772,NATL_PARK
201 Fort Mason Dr,San Francisco,94123,Private,,,5,,,37.805045,-122.428183,62069,J1772,NATL_PARK
1 Muir Woods Rd,Mill Valley,94941,Private,,,1,,,37.893488,-122.572748,62071,J1772,NATL_PARK
1 Muir Woods Rd,Mill Valley,94941,Public,24 hours daily,,2,,,37.892576,-122.571976,62072,J1772,NATL_PARK
2720 Artesia Blvd,Redondo Beach,90278,Public,8am-5pm Tuesday-Saturday,,1,,,33.872549,-118.360193,62602,J1772,GAS_STATION
601 Cedar St,Berkeley,94710,Public,24 hours daily,,1,,,37.873525,-122.304802,62833,J1772,STORAGE
1135 24th St,Paso Robles,93446,Public,24 hours daily; guest use only,,1,,,35.641205,-120.687141,62976,J1772,HOTEL
1 Bear Valley Rd,Point Reyes Station,94956,Public,6am-12am daily; overnight parking pass given to backcountry camping permit holders is required for 24 hour use,,6,,,38.040933,-122.800044,62978,J1772,NATL_PARK
500 Clipper Dr,Belmont,94002,Public - Credit card at all times,24 hours daily; Also accepts Paypal,,8,,,37.5335013,-122.2723743,62980,J1772,OFFICE_BLDG
27050 Agoura Rd,Agoura,91301,Public,"24 hours daily; keypad activated, instructions on EVSE",,4,,,34.137359,-118.713791,63040,J1772,MUNI_GOV
900 S Fremont Ave,Alhambra,91803,Private,employee use only,,40,,,34.085829,-118.149245,63042,J1772,MUNI_GOV
29320 Wayside Rd,Castaic,91384,Private,Employee use only,,2,,,34.465239,-118.586761,63043,J1772,PRISON
7601 E Imperial Hwy,Downey,90242,Public,24 hours daily,,25,,,33.93015941726961,-118.1594074,63044,J1772,HOSPITAL
45000 N 60th St W,Lancaster,93536,Public,7am-4pm M-F,,2,,,34.699161,-118.236662,63045,J1772,MUNI_GOV
335 E Avenue I,Lancaster,93535,Public,Business hours; use buzzer to summon security for access to parking lot,,2,,,34.706156,-118.1248,63046,J1772,HOSPITAL
111 S Grand Ave,Los Angeles,90012,Public,"Garage business hours; pay lot; keypad activated, instructions on EVSE",,3,,,34.055505,-118.248852,63047,J1772,PAY_GARAGE
140 N Grand Ave,Los Angeles,90012,Private,Los Angeles County fleet use only,,10,,,34.056889,-118.247789,63048,J1772,FLEET_GARAGE
140 N Grand Ave,Los Angeles,90012,Private,Employee use only,,10,,,34.056889,-118.247789,63049,J1772,MUNI_GOV
227 N Broadway,Los Angeles,90012,Public,"Garage business hours; pay lot; keypad activated, instructions on EVSE",,4,,,34.055641,-118.244271,63050,J1772,PAY_GARAGE
135 N Grand Ave,Los Angeles,90012,Public,"Garage business hours; pay lot; keypad activated, instructions on EVSE",,3,,,34.057657,-118.24789,63051,J1772,PAY_GARAGE
313 N Figueroa,Los Angeles,90012,Public,"Garage business hours; pay lot; keypad activated, instructions on EVSE",,40,3,,34.060148,-118.250747,63052,CHADEMO J1772,PAY_GARAGE
441 Bauchet St,Los Angeles,90012,Private,Permitted employee parking only,,1,,,34.059715,-118.231965,63053,J1772,PRISON
450 E Bauchet,Los Angeles,90012,Private,Permitted employee parking only,,1,,,34.05870228508828,-118.2303810760574,63054,J1772,PRISON
1277 N Eastern Ave,Los Angeles,90063,Private,Permitted employee parking only,,2,,,34.052459,-118.175258,63055,J1772,MUNI_GOV
1242 N Mission Rd,Los Angeles,90033,Private,Employee use only,,10,,,34.061036,-118.212893,63056,J1772 TESLA,HOSPITAL
1102 N Eastern Ave,Los Angeles,90063,Public,24 hours daily,,4,,,34.050994,-118.174908,63057,J1772,MUNI_GOV
1110 N Eastern Ave,Los Angeles,90063,Private,6am-6pm M-F,,4,,,34.048272,-118.170335,63058,J1772,MUNI_GOV
11703 S Alameda,Lynwood,90059,Public,"Garage business hours; pay lot; keypad activated, instructions on EVSE",,1,,,33.928019,-118.225363,63059,J1772,MUNI_GOV
4700 Ramona Blvd,Monterey Park,91754,Public,8am-5pm M-F,,2,,,34.060685,-118.168137,63060,J1772,MUNI_GOV
12400 E Imperial Hwy,Norwalk,90650,Public - Call ahead,Garage business hours; reserved primarily for employee use; notify attendant before charging,,3,,,33.914865,-118.066813,63061,J1772,MUNI_GOV
270 S Walnut Ave,San Dimas,91773,Public,"24 hours daily; keypad activated, instructions on EVSE",,5,,,34.105077,-117.802207,63062,J1772,MUNI_GOV
23740 Magic Mountain Pkwy,Santa Clarita,91355,Public,"24 hours daily; keypad activated, instructions on EVSE",,1,,,34.416259,-118.551228,63063,J1772,MUNI_GOV
8838 Las Tunas Dr,Temple City,91780,Public,24 hours daily,,2,,,34.103101,-118.07617,63064,J1772,MUNI_GOV
21695 Valley Blvd,Walnut,91789,Public,24 hours daily,,2,,,34.028667,-117.833689,63065,J1772,MUNI_GOV
780 San Vicente Blvd,West Hollywood,90069,Private,For West Hollywood Sheriff Office employee use only,,2,,,34.084738,-118.383963,63066,J1772,MUNI_GOV
44 S Madison Ave,Pasadena,91101,Public,24 hours daily; pay lot,,2,,,34.145121,-118.138228,63067,J1772,PARKING_LOT
155 E Green St,Pasadena,91101,Public,24 hours daily; pay lot,,5,,,34.144703,-118.146957,63068,J1772,PARKING_GARAGE
1715 Tilia St,Davis,95616,Public,24 hours daily,,1,,,38.542219,-121.771883,63094,J1772,COLLEGE_CAMPUS
149 N Halstead St,Pasadena,91107,Public,24 hours daily; pay lot,,4,,,34.14883,-118.079622,63168,J1772,PARKING_LOT
801 N Vignes St,Los Angeles,90012,Public,24 hours daily; pay lot,,10,,,34.056077,-118.232293,63169,J1772,PARKING_LOT
2750 W American Ave,Long Beach,90806,Public,24 hours daily; pay lot,,4,,,33.806509,-118.189823,63170,J1772,PARKING_GARAGE
3913 Lankershim Blvd,Studio City,91604,Public,24 hours daily; pay lot,,4,,,34.139746,-118.361851,63171,J1772,PARKING_LOT
2226 E El Segundo Blvd,El Segundo,90245,Public,24 hours daily; pay lot,,4,,,33.916294,-118.385869,63172,J1772,PARKING_LOT
400 Ocean Ave,Ferndale,95536,Public - Card key at all times,11:30am-8:30pm daily; guests only,,1,,,40.575434,-124.264839,63181,J1772,INN
695 Arena Cove,Point Arena,95468,Public - Call ahead,24 hours daily; call ahead to make appointment,,1,,,38.9143349,-123.7097718,63371,J1772,INN
3700 Middlefield Rd,Palo Alto,94303,Public,24 hours daily,,1,,,37.422105,-122.113507,63419,J1772,
1501 Will Rogers State Park Rd,Los Angeles,90272,Public,Park business hours,,2,,,34.054983,-118.512636,63471,J1772,PARK
1799 Baker St,Los Angeles,90012,Private,Fleet use only,,5,,,34.070849,-118.226589,63472,J1772,PARK
19005 Coast Hwy,Jenner,95450,Public,10am-4:30pm daily,,2,,,38.5159746604047,-123.2467089497376,63477,J1772,PARK
1350 W Katella Ave,Orange,92867,Private,Service Center use only,,3,,,33.807603,-117.866315,63642,J1772,CAR_DEALER
5645 Firestone Blvd,South Gate,90280,Public - Call ahead,Dealership business hours,,2,,,33.950115,-118.166578,63653,J1772,CAR_DEALER
12300 Steiner Rd,Plymouth,95669,Public,9:30am-5pm daily,,1,,,38.53691,-120.79411,63654,J1772,BREWERY_DISTILLERY_WINERY
3280 Auto Plaza Dr,Richmond,94806,Private,Service center use only,,2,,,37.984778,-122.320369,63656,J1772,CAR_DEALER
5501 Highway 128,Philo,95466,Public,Vineyard business hours; for guest use only; see front desk for access,,1,1,,39.0979,-123.484338,63730,CHADEMO J1772,BREWERY_DISTILLERY_WINERY
13560 Mindinao Way,Marina Del Rey,90292,Public,"24 hours daily; keypad activated, instructions on EVSE",,2,,,33.978488,-118.442785,63734,J1772,PAY_LOT
5555 Ferguson Dr,Commerce,90022,Private,24 hours daily; employees only,,3,,,34.011408,-118.153406,63735,J1772,MUNI_GOV
1720 E 120th St,Los Angeles,90059,Public,24 hours daily,,37,,,33.923781,-118.240951,63737,J1772,HOSPITAL
14445 Olive View Dr,Sylmar,91342,Public,"24 hours daily; keypad activated, instructions on EVSE",,2,,,34.325912,-118.445513,63738,J1772,HOSPITAL
9150 E Imperial Hwy,Downey,90242,Public,"Business hours; keypad activated, instructions on EVSE",,41,,,33.916855,-118.133385,63739,J1772,MUNI_GOV
1221 W Colton Ave,Redlands,92374,Private,Service center use only; charge to use,,1,,,34.06289,-117.200841,63740,J1772,CAR_DEALER
1100 Auto Center Cir,Salinas,93907,Public,Dealership business hours,,4,,,36.71552,-121.662804,63808,J1772,CAR_DEALER
22 4th St,San Francisco,94103,Public,6am-12am daily,,1,,,37.785064,-122.405175,63877,J1772,PAY_GARAGE
560 Mission St,San Francisco,94105,Public,24 hours daily,,2,,,37.788865,-122.399359,63880,J1772,PARKING_GARAGE
3251 20th Ave,San Francisco,94132,Public,6am-12am daily,,2,1,,37.727859,-122.476309,63881,CHADEMO J1772 J1772COMBO,SHOPPING_MALL
265 Winston Dr,San Francisco,94132,Public,6am-12am daily,,2,,,37.726656,-122.475999,63882,J1772,SHOPPING_CENTER
17045 Condit Rd,Morgan Hill,95037,Private,Service center use only,,3,,,37.134563,-121.632944,63987,J1772,CAR_DEALER
1 University Dr,Camarillo,93012,Public,24 hours daily; permit required or day pass available for purchase,,2,,,34.16386621848126,-119.0417562473297,64416,J1772,COLLEGE_CAMPUS
2320 Forest Ave,Chico,95928,Public,24 hours daily; Drivers must bring their own J1772 cordset for Level 1 charging,6,1,,,39.717216,-121.801107,64559,J1772 NEMA520,COLLEGE_CAMPUS
1225 Lincoln Way,Auburn,95603,Public,24 hours daily,,1,,,38.89702,-121.074405,64697,J1772,MUNI_GOV
11500 Blocker Dr,Auburn,95603,Public,24 hours daily,,1,,,38.902182,-121.083175,64700,J1772,MUNI_GOV
2645 La Cienega Ave,Los Angeles,90034,Private,,,1,,,34.033635,-118.378848,64773,J1772,STORAGE
2501 Cesar Chavez St,San Francisco,94124,Public - Call ahead,7am-7pm M-Sat,,1,,,37.749068,-122.402416,64775,J1772,STORAGE
1860 Vine St,Los Angeles,90028,Public,6am-10pm daily,,1,,,34.1049,-118.326458,64778,J1772,STORAGE
1443 2nd St,Santa Monica,90403,Public,24 hours daily,,30,,,34.014299,-118.49638,65080,J1772,PARKING_GARAGE
7230 Firestone Blvd,Downey,90241,Public,24 hours daily,,3,,,33.946978,-118.155046,65657,J1772,REC_SPORTS_FACILITY
9715 Firestone Blvd,Downey,90241,Public - Call ahead,Dealership business hours; customers only,,2,,,33.929068,-118.109466,65658,J1772,CAR_DEALER
5050 Clark Ave,Lakewood,90712,Public,24 hours daily; maximum session time of 90 minutes,,2,,,33.849737,-118.132994,65659,J1772,MUNI_GOV
790 E. Colorado Boulevard,Pasadena,91101,Public,,,2,,,34.133435,-118.136606,65915,J1772,
35 N. Lake Avenue,Pasadena,91101,Public,,,2,,,34.14695,-118.1327,65916,J1772,
1111 N Main St,Fort Bragg,95437,Public - Call ahead,24 hours daily,,1,,,39.460807,-123.806806,66533,J1772,HOTEL
600 N Highland Springs Ave,Banning,92220,Public,24 hours daily,,2,,,33.9317483,-116.9459506,66638,J1772,HOSPITAL
18111 Nordhoff St,Northridge,91330,Public,24 hours daily; parking permit required,,2,,,34.241917,-118.532194,66721,J1772,COLLEGE_CAMPUS
18111 Nordhoff St,Northridge,91330,Public,24 hours daily; parking permit required,,4,,,34.242856,-118.532897,66722,J1772,COLLEGE_CAMPUS
18111 Nordhoff St,Northridge,91330,Public,24 hours daily; parking permit required,,4,,,34.237626,-118.524479,66723,J1772,COLLEGE_CAMPUS
18111 Nordhoff St,Northridge,91330,Public,24 hours daily; parking permit required,,3,,,34.237474,-118.526461,66724,J1772,COLLEGE_CAMPUS
160 S 10th St,Colton,92324,Private,Employee use only,,2,,,34.063087,-117.321885,66750,J1772,MUNI_GOV
1327 16th St,Santa Monica,90404,Private,Employee use only,,4,,,34.026614,-118.484166,66868,J1772,HOSPITAL
10666 N Torrey Pines Rd,La Jolla,92037,Private,Employee use only,,2,,,32.89947,-117.243,66882,J1772,HOSPITAL
1 Ahwahnee Dr,Yosemite Valley,95386,Public,24 hours daily,1,1,,,37.745956,-119.574336,66931,J1772,NATL_PARK
6565 Sunset Blvd,Hollywood,90028,Public - Call ahead,Primarily for permit holders; public will be charged extra,,4,,,34.09846,-118.332885,66933,J1772,PARKING_GARAGE
318 W Adams Blvd,Los Angeles,90007,Private,Permitted employee parking only,,2,,,34.025692,-118.273425,67299,J1772,PAY_GARAGE
1104 N Eastern Ave,Los Angeles,90063,Private,Los Angeles County fleet use only,,15,,,34.049091,-118.173119,67300,J1772,FLEET_GARAGE
4554 Briggs Ave,La Crescenta,91214,Public,24 hours daily,,2,,,34.220972,-118.230266,67302,J1772,MUNI_GOV
1104 N Eastern Ave,Los Angeles,90063,Public,Business hours,,2,,,34.049649,-118.172315,67303,J1772,FLEET_GARAGE
1000 W Carson St,Torrance,90502,Public,Garage business hours,,7,,,33.828186,-118.290921,67305,J1772,HOSPITAL
7555 Van Nuys Blvd,Van Nuys,91405,Public,6am-6pm M-F; employee use only,,7,,,34.207129,-118.44959,67306,J1772,PARKING_GARAGE
5050 Commerce Dr,Baldwin Park,91706,Private,"6am-6pm M-F; keypad activated, instructions on EVSE",,3,,,34.102754,-117.974207,67307,J1772,MUNI_GOV
8300 S Vermont Ave,Los Angeles,90044,Public,"6am-6pm M-F; keypad activated, instructions on EVSE",,20,,,33.96346,-118.291076,67308,J1772,MUNI_GOV
900 Exposition Blvd,Los Angeles,90007,Public,Museum business hours,,40,,,34.017635,-118.289337,67309,J1772,MUSEUM
20460 Hawthorne Ave,Torrance,90503,Public - Call ahead,Dealership business hours,,2,,,33.845242,-118.353057,67701,J1772,CAR_DEALER
4520 N Sepulveda Blvd,Sherman Oaks,91403,Public,6am-12am daily,,3,,,34.151681,-118.466535,67788,J1772,GROCERY
1088 College Ave,St. Helena,94574,Private,Student and employee use only,,2,,,38.509959,-122.456246,67930,J1772,COLLEGE_CAMPUS
4101 Gateway Park Blvd,Sacramento,95834,Private,Employee use only,,1,,,38.644404,-121.503723,67950,J1772,OFFICE_BLDG
1515 R St,Sacramento,95811,Public,24 hours daily,1,5,,,38.569559,-121.490128,68001,J1772,PAY_GARAGE
1 Red Hawk Pkwy,Placerville,95667,Public,24 hours daily,,10,,,38.69494,-120.906682,68151,J1772,OTHER_ENTERTAINMENT
1360 Johnson Blvd,South Lake Tahoe,96150,Public,24 hours daily,,4,,,38.933046,-119.971569,68152,J1772,MUNI_GOV
330 Fair Ln,Placerville,95667,Public,24 hours daily,,10,,,38.727588,-120.827025,68153,J1772,MUNI_GOV
700 W Cadillac Ln,Hanford,93230,Private,Service center use only,,1,,,36.320443,-119.655306,68385,J1772,CAR_DEALER
1 Auto Park Pl,Chowchilla,93610,Private,Service center use only,,1,,,37.124793,-120.248388,68386,J1772,CAR_DEALER
1300 Country Club Dr,Madera,93638,Private,Service center use only,,1,,,36.977703,-120.074695,68387,J1772,CAR_DEALER
40530 Highway 41,Oakhurst,93644,Public - Call ahead,24 hours daily; for guest use only,,2,,,37.335923,-119.646151,68388,J1772,HOTEL
1400 Auto Center Dr,Merced,95340,Public - Call ahead,Dealership business hours; customer use only,,1,,,37.305111,-120.501925,68390,J1772,CAR_DEALER
6441 Holman Rd,Stockton,95212,Public - Call ahead,Dealership business hours; for Chevrolet vehicle use only,,,1,,38.018189,-121.271691,68393,J1772COMBO,CAR_DEALER
2707 Transworld Dr,Stockton,95206,Public - Call ahead,8am-5pm M-F; see front desk for access,,2,,,37.909462,-121.2324,68395,J1772,STATE_GOV
4742 McHenry Ave,Modesto,95356,Public - Call ahead,Dealership business hours; open to public,,3,,,37.70884,-120.994273,68398,J1772,CAR_DEALER
4513 McHenry Ave,Modesto,95354,Public - Call ahead,Dealership business hours,,1,,,37.7054,-120.995483,68399,J1772,CAR_DEALER
1285 E F St,Oakdale,95361,Private,Limited Use,,2,1,,37.770686,-120.834766,68400,J1772 J1772COMBO,CAR_DEALER
701 2nd St,Patterson,95363,Private,Service center use only,,2,,,37.463831,-121.123359,68401,J1772,CAR_DEALER
1 University Cir,Turlock,95382,Public,24 hours daily; parking permit required,,2,,,37.522473,-120.860467,68402,J1772,COLLEGE_CAMPUS
1601 Auto Mall Dr,Turlock,95380,Public - Call ahead,Dealership business hours; for customer use only,,1,,,37.508226,-120.882066,68403,J1772,CAR_DEALER
132 N D St,Exeter,93221,Public - Call ahead,Dealership business hours,,2,,,36.297258,-119.140309,68404,J1772,CAR_DEALER
800 W Henderson,Porterville,93257,Private,Service center use only,,1,,,36.080904,-119.035353,68405,J1772,CAR_DEALER
40597 Westlake Dr,Oakhurst,93644,Public,24 hours daily,,1,,,37.339096,-119.669079,68408,J1772,HOSPITAL
1255 20th St,Santa Monica,90404,Public,24 hours daily; for guest use only; see front desk for access,,2,,,34.030445,-118.481495,68899,J1772,HOTEL
535 S Pacific Coast Hwy,Redondo Beach,90277,Public,24 hours daily,,2,,,33.833123,-118.385595,69102,J1772,
189 The Grove Dr,Los Angeles,90036,Public,24 hours daily; parking free with validation,,6,,,34.072939,-118.358158,69138,J1772,SHOPPING_MALL
418 E Cypress Ave,Redding,96002,Private,Dealership business hours,,1,,,40.571392,-122.364311,69734,J1772,CAR_DEALER
680 E. Colorado Blvd.,Pasadena,91101,Public,24 hours daily,,2,,,34.145337,-118.136558,69872,J1772,
617 Dead Cat Alley,Woodland,95695,Public,24 hours daily; 2 hour parking limit,,4,,,38.6783,-121.7727,69944,J1772,PARKING_LOT
501 Court St,Woodland,95695,Public,24 hours daily,,1,,,38.6792,-121.7743,69945,J1772,LIBRARY
34946 Flyover Ct,Bakersfield,93308,Public,8am-5pm M-F,,3,,,35.454891,-119.078333,69970,J1772,MUNI_GOV
1416 9th St,Sacramento,95814,Private,Employee use only,,2,,,38.575965,-121.497045,69972,J1772,STATE_GOV
31540 Ridge Route Rd,Castaic,91384,Public,24 hours daily; Accepts EVRUS Card,,1,1,,34.491866,-118.616811,69973,CHADEMO J1772,RV_PARK
1605 W Mahalo Pl,Compton,90220,Private,Employee and guest use only; available to the public in an emergency,,2,,,33.870986,-118.243988,69974,J1772,OFFICE_BLDG
590 Grand Caribe Causeway,Coronado,92118,Public,,,5,,,32.62453,-117.1303,69975,J1772,
5980-6140 Shoreline Hwy,Elk,95432,Public,24 hours daily,,2,,,39.130281,-123.718758,69978,J1772,PARK
8400 Laguna Palms Way,Elk Grove,95758,Private,For city vehicle use only,,1,,,38.417314,-121.394781,69979,J1772,MUNI_GOV
8401 Laguna Palms Way,Elk Grove,95758,Public,7am-9pm M-F,,2,,,38.41816,-121.394898,69980,J1772,MUNI_GOV
505 S Vulcan Ave,Encinitas,92024,Public,24 hours daily,,,10,,33.045626,-117.291461,69981,CHADEMO,MUNI_GOV
46714 Fremont Blvd,Fremont,94538,Public,24 hours daily,,,4,,37.479817,-121.944856,69986,CHADEMO J1772COMBO,OFFICE_BLDG
1352 W Olive Ave,Fresno,93728,Private,Fleet vehicle use only,,10,,,36.757664,-119.828227,69988,J1772,STATE_GOV
495 Industrial Dr,Galt,95632,Private,Employee use only,,2,,,38.264827,-121.305544,69989,J1772,MUNI_GOV
1812 Verdugo Blvd,Glendale,91208,Private,Employee use only,,1,,,34.204535,-118.216049,69991,J1772,HOSPITAL
445 E Florida Ave,Hemet,92543,Public,24 hours daily,,2,,,33.746962,-116.967848,69992,J1772,MUNI_GOV
8001 N Highway 1,Little River,95456,Public,24 hours daily,,2,,,39.27641,-123.768462,69996,J1772,PARK
1317 Shatto St,Los Angeles,90017,Public,24 hours daily,,11,,,34.055329,-118.267077,70006,J1772,HOSPITAL
13200 Golden State Rd,Los Angeles,91342,Private,,,10,,,34.3105669,-118.4831458,70007,J1772,STATE_GOV
139 S George Burns Rd,Los Angeles,90048,Private,Employee use only,,16,,,34.074538,-118.381799,70009,J1772,HOSPITAL
5333 Zoo Dr,Los Angeles,90027,Public,6am-11pm daily,,6,,,34.148873,-118.283976,70010,J1772,OTHER_ENTERTAINMENT
636 Lucas Ave,Los Angeles,90017,Public - Call ahead,Garage business hours,,3,,,34.053453,-118.264153,70011,J1772,HOSPITAL
13800 Cabrillo Dr,Mendocino,95460,Public,24 hours daily,,2,,,39.350629,-123.814654,70016,J1772,PARK
4800 Enterprise Way,Modesto,95356,Public,8am-5pm M-F,,3,,,37.70759,-121.071435,70017,J1772,MUNI_GOV
18599 Philo Greenwood Rd,Philo,95466,Public,24 hours daily,,2,,,39.065732,-123.445009,70021,J1772,PARK
1808 N Batavia Ave,Orange,92685,Private - Credit card at all times,Employee and state vehicle use only; also accepts PayPal,,10,,,33.817817,-117.8634,70024,J1772,STATE_GOV
255 E Fifth St,Oxnard,93030,Public,24 hours daily,,2,,,34.197838,-119.174557,70056,J1772,PARKING_LOT
324 S B St,Oxnard,93030,Public,Garage business hours,,1,,,34.199732,-119.179146,70057,J1772,PARKING_LOT
125 S Grand Ave,Pasadena,91105,Private,Employee use only,,2,,,34.143424,-118.162644,70060,J1772,FED_GOV
2729 Prospect Park Dr,Rancho Cordova,95670,Public,24 hours daily,,4,,,38.589518,-121.285008,70064,J1772,MUNI_GOV
2880 Gold Tailings Ct,Rancho Cordova,95670,Private,Employee use only,,1,,,38.598204,-121.268335,70065,J1772,MUNI_GOV
11615 Sterling Ave,Riverside,92503,Public,Business hours; see front desk for access,,2,,,33.896439,-117.483229,70066,J1772,OFFICE_BLDG
1600 Eureka Rd,Roseville,95661,Private,Fleet and member use only,,2,,,38.747407,-121.250657,70067,J1772,HOSPITAL
885 Riverside Pkwy,West Sacramento,95605,Private,Employee use only,,6,,,38.587558,-121.565487,70069,J1772,STATE_GOV
4700 College Oak Dr,Sacramento,95841,Public,Garage business hours; must have parking permit,,14,,,38.65041,-121.345496,70070,J1772,COLLEGE_CAMPUS
5730 24th St,Sacramento,95822,Private,Employee and fleet use only; Drivers must bring their own J1772 cordset for Level 1 charging,6,6,,,38.519548,-121.485754,70071,J1772 NEMA1450,MUNI_GOV
6000 J St,Sacramento,95819,Public,Garage business hours; must have parking permit,,4,,,38.55991966310581,-121.4269360132752,70072,J1772,COLLEGE_CAMPUS
6000 J St,Sacramento,95819,Public,Garage business hours; must have parking permit,,4,,,38.55997,-121.420606,70073,J1772,COLLEGE_CAMPUS
6000 J St,Sacramento,95819,Public,Garage business hours; must have parking permit,,15,,,38.563944,-121.425722,70074,J1772,COLLEGE_CAMPUS
1621 Price St,Pismo Beach,93449,Public,24 hours daily; for guest use only; see front desk for access,,2,,,35.1459,-120.64605,70272,J1772,HOTEL
111 E Ocean Blvd,Long Beach,90802,Public,24 hours daily; for guest use only; see valet for access; pay lot,,2,,,33.767531,-118.191749,70358,J1772,HOTEL
2757 Shell Beach Rd,Pismo Beach,93449,Public,24 hours daily; for guest use only; see valet for access,,1,,,35.164971,-120.690169,70401,J1772,HOTEL
777 12th St,Sacramento,95814,Public,Mon-Fri 6am-6pm; for employee use unless an emergency,,5,,,38.582059,-121.48935,70561,J1772,PAY_GARAGE
3165 Pacific Hwy,San Diego,92101,Public,8am-5pm daily,,1,,,32.735306,-117.176837,70565,J1772,OFFICE_BLDG
711 University Ave,San Diego,92103,Public,Garage business hours,,5,,,32.747691,-117.15813,70567,J1772,GROCERY
7993 Balboa Ave,San Diego,92111,Private,,,1,,,32.82141,-117.150961,70568,J1772,RENTAL_CAR_RETURN
3000 Davis St,San Leandro,94577,Public,Business hours; for visitor use only,,1,,1 LP Inductive,37.716241,-122.187343,70573,J1772,UTILITY
201 N Milpas St,Santa Barbara,93103,Public - Call ahead,"8am-5pm M-F; employee use prioritized, call to register with front desk before arrival; maximum 3 hours",,3,,,34.423434,-119.68182,70575,J1772,OFFICE_BLDG
1716 Cottonwood St,Woodland,95695,Public,24 hours daily; check in with office during school hours,,2,,,38.658128,-121.794707,70584,J1772,SCHOOL
20450 County Rd 97,Woodland,95695,Public,24 hours daily; check in with office during school hours,,2,,,38.642231,-121.822455,70585,J1772,SCHOOL
21 N W St,Woodland,95695,Public,24 hours daily; check in with office during school hours,,4,,,38.686897,-121.786232,70586,J1772,SCHOOL
435 6th St,Woodland,95695,Public,24 hours daily; check in with office during school hours,,2,,,38.676196,-121.766289,70587,J1772,SCHOOL
50 Ashley Ave,Woodland,95695,Public,24 hours daily; check in with office during school hours,,2,,,38.683943,-121.79905,70588,J1772,SCHOOL
624 W Southwood Dr,Woodland,95695,Public,24 hours daily; check in with office during school hours,,2,,,38.669819,-121.794558,70589,J1772,SCHOOL
720 Homestead Way,Woodland,95776,Public,24 hours daily; check in with office during school hours,,2,,,38.671075,-121.739798,70590,J1772,SCHOOL
1300-1398 Bay St,San Francisco,94123,Public,Park hours; 4 hour limit,,4,,,37.803955,-122.429484,70601,J1772,PARK
Building 32,San Francisco,94123,Private,Employee use only,,2,,,37.8067536,-122.4310408,70602,J1772,NATL_PARK
4900 Shoreline Highway 1,Stinson Beach,94970,Public,Park hours; 4 hour limit,,4,,,37.896506,-122.639414,70603,J1772,NATL_PARK
955 Melrose Ave,Anaheim,92805,Private,Fleet and visitor use only,,5,,,33.823941,-117.904768,70670,J1772,MUNI_GOV
221 Fairway Dr,Tahoe City,96145,Public,24 hours daily,,1,,1 LP Inductive,39.166653,-120.14823,70674,J1772,UTILITY
445 Maple Ave,Torrance,90501,Private,Available to the public after business hours; 5pm-8am,,3,1,,33.844753,-118.340521,70675,J1772 J1772COMBO,OFFICE_BLDG
3 Hamilton Landing,Novato,94949,Public,24 hours daily,,2,,,38.057367,-122.514066,70871,J1772,PARKING_LOT
5 Hamilton Landing,Novato,94949,Public,24 hours daily,,2,,,38.058125,-122.513464,70872,J1772,PARKING_LOT
7 Hamilton Landing,Novato,94949,Public,24 hours daily,,2,,,38.059185,-122.514276,70873,J1772,PARKING_LOT
20 City Blvd W,Orange,92868,Public,24 hours daily,,1,4,1 LP Inductive,33.784803,-117.893592,70875,CHADEMO J1772 J1772COMBO,SHOPPING_MALL
2836 El Centro Rd,Sacramento,95833,Public,24 hours daily,,2,,,38.618916,-121.535361,70881,J1772,OFFICE_BLDG
1001 Santa Clara Place,San Diego,92109,Public,,,3,,,32.78254,-117.249228,70882,J1772,
4770 Fairport Way,San Diego,92130,Public,,,4,,,32.931292,-117.217379,70884,J1772,
9020 Miramar Rd,San Diego,92126,Public - Call ahead,Dealership business hours; for customer use only,,1,,,32.895052,-117.130446,71144,J1772,CAR_DEALER
1401 Garces Hwy,Delano,93215,Private,Employee use only,,4,,,35.761418,-119.238878,71263,J1772,HOSPITAL
400 Q St,Sacramento,95811,Public,Garage business hours; Drivers must bring their own J1772 cordset for Level 1 charging,51,18,,,38.574402,-121.50487,71439,J1772,PAY_GARAGE
915 I St,Sacramento,95814,Private,Employee use only,,9,,,38.581912,-121.493562,71441,J1772,MUNI_GOV
1600 Palos Verdes Dr N,San Pedro,90710,Public,24 hours daily; employee and student use only,,1,,,33.778534,-118.304449,71444,J1772,COLLEGE_CAMPUS
1604 S B St,Stockton,95206,Private,State vehicle and employee use only,,1,,,37.941191,-121.257382,71446,J1772,STATE_GOV
1976 MLK Jr Blvd,Stockton,95205,Private,State vehicle and employee use only,,7,,,37.94221,-121.259655,71447,J1772,STATE_GOV
3003 Coronado Ave.,San Diego,92154,Public,,,3,,,32.57687,-117.06867,71517,J1772,
8810 Judicial Dr.,San Diego,92122,Public,,,7,,,32.86722,-117.19888,71519,J1772,
18448 W Bernardo Dr.,San Diego,92127,Public,,,5,,,33.0474,-117.074023,71524,J1772,
1455 Oliver Rd,Fairfield,94534,Private,Employee use only,,2,,,38.258821,-122.069527,71655,J1772,OFFICE_BLDG
3290 N State St,Ukiah,95482,Private,Employee and state vehicle use only,,1,,,39.193798,-123.206795,71871,J1772,STATE_GOV
9 9th St,Marysville,95901,Private,Employee and state vehicle use only,,2,,,39.145498,-121.583959,71874,J1772,STATE_GOV
1403 Furneaux Rd,Olivehurst,95961,Private,Employee and state vehicle use only,,1,,,39.10746,-121.564815,71875,J1772,STATE_GOV
3165 Gold Valley Dr,Rancho Cordova,95742,Private,Employee and state vehicle use only,,1,,,38.587084,-121.261844,71876,J1772,STATE_GOV
111 Grand Ave,Oakland,94612,Private,Employee and state vehicle use only,,8,,,37.810953,-122.26492,71878,J1772,PARKING_GARAGE
2616 N Main St,Walnut Creek,94597,Private,State vehicle use only,,1,,,37.919658,-122.063733,71879,J1772,STATE_GOV
3401 Regatta Blvd,Richmond,94804,Private,Employee and state vehicle use only,,2,,,37.918214,-122.336768,71881,J1772,STATE_GOV
1007 Knox Ave,San Jose,95122,Private,Employee and state vehicle use only,,1,,,37.337632,-121.848214,71882,J1772,STATE_GOV
50 Higuera St,San Luis Obispo,93401,Private,Employee and state vehicle use only,,3,,,35.267039,-120.671467,71883,J1772,MOTOR_POOL
3240 N Millbrook Ave,Fresno,93726,Private,Employee and state vehicle use only,,1,,,36.78019,-119.763319,71884,J1772,STATE_GOV
15337 Avenue 296,Visalia,93292,Private,Employee and state vehicle use only,,2,,,36.326723,-119.230845,71885,J1772,STATE_GOV
1226 Olive Dr,Bakersfield,93308,Private,Employee and state vehicle use only,,1,,,35.412288,-119.045373,71886,J1772,STATE_GOV
2015 E Shields Ave,Fresno,93703,Private,Employee and state vehicle use only,,1,,,36.779877,-119.787778,71887,J1772,STATE_GOV
455 S Lemoore Ave,Lemoore,93245,Private,Employee and state vehicle use only,,1,,,36.292683,-119.780841,71888,J1772,STATE_GOV
805 S Lexington St,Delano,93215,Private,Employee and state vehicle use only,,1,,,35.750383,-119.24074,71889,J1772,STATE_GOV
2090 Fern Ln,Glendale,91208,Private,Employee and state vehicle use only,,2,,,34.184983,-118.218442,71891,J1772,STATE_GOV
12975 W Culver Blvd,Los Angeles,90066,Private,Employee and state vehicle use only,,2,,,33.9819128,-118.4287891,71892,J1772,STATE_GOV
464 W 4th St,San Bernardino,92401,Private,Employee and state vehicle use only,,3,,,34.106667,-117.293499,71895,J1772,STATE_GOV
15700 Tustin Village Way,Tustin,92780,Private,Employee and state vehicle use only,,10,,,33.7352929,-117.835493,71900,J1772,STATE_GOV
1920 35th St,Sacramento,95816,Private,Employee and state vehicle use only,,1,,,38.56086,-121.46453,71901,J1772,STATE_GOV
66 Madonna Rd,San Luis Obispo,93401,Private,Employee and state vehicle use only,,1,,,35.267603,-120.671516,71902,J1772,STATE_GOV
13204 Golden State Rd,Sylmar,91342,Private,Employee and state vehicle use only,,2,,,34.310846,-118.483348,71903,J1772,STATE_GOV
7301 E Slauson,Commerce,90040,Private - Credit card at all times,Employee and state vehicle use only; Also accepts PayPal,,10,,,33.9811615,-118.1319804,71904,J1772,STATE_GOV
100 S Main St,Los Angeles,90012,Private,Employee and state vehicle use only,,8,,,34.052238,-118.243344,71905,J1772,STATE_GOV
1993 Marina Blvd,San Leandro,94577,Private,Employee and state vehicle use only,,2,,,37.707918,-122.172787,71906,J1772,STATE_GOV
120 Rickard St,San Francisco,94134,Private,Employee and state vehicle use only,,10,,,37.73345,-122.409883,71907,J1772,STATE_GOV
6010 Monterey Rd,San Jose,95138,Private,Employee and state vehicle use only,,2,,,37.239249,-121.774961,71908,J1772,STATE_GOV
2019 W Texes,Fairfield,94533,Private,Employee and state vehicle use only,,2,,,38.248979,-122.06363,71909,J1772,STATE_GOV
1385 N West Ave,Fresno,93728,Private,Employee and state vehicle use only,,4,,,36.761301,-119.827264,71911,J1772,STATE_GOV
5900 Folsom Blvd,Sacramento,95819,Private - Credit card at all times,Employee and state vehicle use only; Also accepts PayPal,,10,,,38.55599,-121.43528,71912,J1772,STATE_GOV
1250 Bellflower Blvd,Long Beach,90840,Public,24 hours daily,,2,,,33.786099,-118.116119,72027,J1772,COLLEGE_CAMPUS
1250 Bellflower Blvd,Long Beach,90840,Public,24 hours daily,,1,,,33.786682,-118.109671,72028,J1772,COLLEGE_CAMPUS
3400 R St,Sacramento,95816,Private,Employee and state vehicle use only,,2,,,38.563247,-121.465454,72030,J1772,STATE_GOV
50 Castilian Dr,Goleta,93117,Public,24 hours daily,,4,,,34.434273,-119.863807,72354,J1772,RESEARCH_FACILITY
5580 Overland Ave,San Diego,92121,Private,Employee use only,,6,,,32.834049,-117.130671,72359,J1772,UTILITY
735 33rd St,San Diego,92102,Private,Employee use only,,6,,,32.713145,-117.120837,72360,J1772,UTILITY
140116th St,San Francisco,94103,Private,,,2,,,37.7660567,-122.401169,72735,J1772,OFFICE_BLDG
21021 Ventura Blvd,Los Angeles,91364,Public,24 hours daily,,6,,,34.167153,-118.59117,72798,J1772,OFFICE_BLDG
4510 Executive Dr,San Diego,92121,Public,24 hours daily,,2,,,32.8761269,-117.211,72802,J1772,HOSPITAL
13400 Sabre Springs Pkwy,San Diego,92128,Private,,,1,,,32.961506,-117.092757,72856,J1772,OFFICE_BLDG
39611 Oak Glen Rd,Oak Glen,92399,Public,8am-4:30pm daily; maximum stay of 2 hours,,1,,,34.039816,-116.941481,73467,J1772,PARK
401 E Chapman Ave,Placentia,92870,Public,8am-6pm M-F,,2,,,33.871884,-117.862009,73712,J1772,MUNI_GOV
14455 CA 16,Brooks,95606,Public,24 hours daily,,6,,,38.732886,-122.143539,74267,J1772 TESLA,OTHER_ENTERTAINMENT
1800 N Main St,Los Angeles,90031,Private,,,6,,,34.064532,-118.222392,74640,J1772,STANDALONE_STATION
3800 Sillect Ave,Bakersfield,93308,Private,,,10,,,35.394649,-119.034205,74641,J1772,FLEET_GARAGE
17115 S Western Ave,Gardena,90247,Private,,,10,,,33.875663,-118.309806,74642,J1772,FLEET_GARAGE
1380 Shore St,Sacramento,95691,Private,,,10,,,38.571532,-121.54739,74643,J1772,FLEET_GARAGE
1400 Hil-Mor Dr,Ceres,95307,Private,,,10,,,37.598952,-120.972133,74644,J1772,FLEET_GARAGE
1601 W McKinley Ave,Fresno,93728,Private,,,10,,,36.763773,-119.831517,74645,J1772,FLEET_GARAGE
22 Brookline Dr,Laguna Hills,92656,Private,,,2,,,33.590023,-117.730359,74646,J1772,FLEET_GARAGE
1457 E Victoria Ave,San Bernardino,92408,Private,,,100,,,34.074295,-117.255657,74647,J1772,FLEET_GARAGE
1215 Ysabel St,Paso Robles,93446,Public,24 hours daily; for guest use only; see front desk for access,,1,,,35.640982,-120.687792,74784,J1772,HOTEL
475 Coffee Creek Rd,Coffee Creek,96091,Public - Call ahead,24 hours daily; see front desk for access,,1,,,41.08459428950268,-122.718496665329,74805,J1772,HOTEL
2400 CA 46 W,Paso Robles,93446,Public,24 hours daily; for guest use only,,2,,,35.57063225644688,-120.7420085853195,74947,J1772,BREWERY_DISTILLERY_WINERY
73 E Clara St,Arcadia,91006,Public,24 hours daily; pay lot,,3,,,34.14247857310078,-118.029181071164,75316,J1772,PARKING_GARAGE
1641 S Primrose Ave,Monrovia,91016,Public,24 hours daily; pay lot,,3,,,34.133889,-118.002898,75317,J1772,PARKING_GARAGE
1789 Business Center Dr,Duarte,91010,Public,24 hours daily; pay lot,,3,,,34.134179,-117.965672,75318,J1772,PARKING_LOT
15998 Avenida Padilla,Irwindale,91702,Public,24 hours daily; pay lot,,3,,,34.128551,-117.932122,75319,J1772,PARKING_GARAGE
901 N Citrus Ave,Azusa,91702,Public,24 hours daily; pay lot,,3,,,34.095736,-117.890195,75320,J1772,PARKING_GARAGE
2001 East St,Woodland,95776,Private,City fleet use only,,1,,,38.6528,-121.76,75436,J1772,REC_SPORTS_FACILITY
435 Court St,Woodland,95695,Public,24 hours daily,,2,,,38.679,-121.775,75437,J1772,PARKING_LOT
5353 Grosvenor Blvd,Los Angeles,90066,Private,Employee and visitor use only; see front desk for access,,2,1,,33.982929,-118.415287,75470,CHADEMO J1772,OFFICE_BLDG
560 Auto Park Dr,Chula Vista,91911,Private,Service center use only,,,1,,32.593786,-117.030544,75472,CHADEMO,CAR_DEALER
2000 Visalia Row,Coronado,92118,Public,,,4,,,32.684762,-117.166005,75489,J1772,
701 Gateway Blvd,South San Francisco,94080,Public,,,4,,,37.660128,-122.397626,75492,J1772,
2525 Highland Ave,Selma,93662,Public - Call ahead,Dealership hours,,2,,,36.570975,-119.629736,75497,J1772,CAR_DEALER
18111 Nordhoff St,Northridge,91330,Public,24 hours daily; parking permit required,,2,,,34.235503,-118.527753,75690,J1772,COLLEGE_CAMPUS
5500 University Pkwy,San Bernardino,92407,Public,24 hours daily,,6,,,34.1827,-117.323997,75692,J1772,COLLEGE_CAMPUS
1 University Cir,Turlock,95382,Public,24 hours daily; parking permit required,,2,,,37.524248,-120.851941,75693,J1772,COLLEGE_CAMPUS
1 University Cir,Turlock,95382,Public,24 hours daily; parking permit required,,2,,,37.52251652757602,-120.8554698981476,75694,J1772,COLLEGE_CAMPUS
4027 Clipper Ct,Fremont,94538,Public,24 hours daily,,4,,,37.480111,-121.947071,75720,J1772,OFFICE_BLDG
46705 Fremont Blvd,Fremont,94538,Public,24 hours daily,,2,,,37.481074,-121.945688,75721,J1772,OFFICE_BLDG
47505 Seabridge Dr,Fremont,94538,Public,24 hours daily,,6,,,37.476026,-121.942438,75722,J1772,OFFICE_BLDG
9339 Adelaida Rd,Paso Robles,93446,Public,10am-5pm daily,,1,,,35.63651846055232,-120.8593218928375,75830,J1772,BREWERY_DISTILLERY_WINERY
3302 Sawtelle Blvd,Los Angeles,90066,Private,For UCLA students at University Village,,8,,,34.021353,-118.426229,75842,J1772,COLLEGE_CAMPUS
3880 Iron Canyon Cir,Stockton,95209,Public,24 hours daily,,2,,,38.04508,-121.366808,76386,J1772,SCHOOL
10555 Thornton Rd,Stockton,95209,Public,24 hours daily,,2,,,38.051545,-121.351267,76387,J1772,SCHOOL
6550 Van Nuys Blvd,Los Angeles,91405,Public,9am-5pm M-F,,,2,,34.18993277467182,-118.4481874,76673,CHADEMO J1772COMBO,UTILITY
355 Alma St,Palo Alto,94301,Public,24 hours daily; 2 hours max,,,1,,37.444686,-122.165349,76699,CHADEMO,STREET_PARKING
357 W 35th St,Los Angeles,90007,Public,"Faculty, staff, and student use only",,,1,,34.019032,-118.277869,76704,CHADEMO,COLLEGE_CAMPUS
1230 W 3rd St,Los Angeles,90017,Public,24 hours daily,,,1,,34.057008,-118.259212,76705,CHADEMO,UTILITY
1703 Mountain Ave,Monrovia,91016,Public,7am-4pm daily,,2,,,34.133361,-117.987274,76721,J1772,MUNI_GOV
1670 E 120th St,Los Angeles,90059,Public,24 hours daily,,2,,,33.923391,-118.240101,76722,J1772,HOSPITAL
750 S Park,Pomona,91766,Private,"6am-6pm M-F; keypad activated, instructions on EVSE; employee use only",,1,,,34.052737,-117.753867,76724,J1772,MUNI_GOV
1320 N Eastern Ave,Los Angeles,90063,Private,Fleet use only,,6,,,34.052263,-118.172222,76725,J1772,MUNI_GOV
1002 Mendocino Ave,Santa Rosa,95401,Public,24 hours daily; customer use only,,2,,,38.449962,-122.717135,77140,J1772,OFFICE_BLDG
1010 E Prosperity Ave,Tulare,93274,Public,24 hours daily,,,1,,36.225598,-119.333601,77561,CHADEMO,HOTEL
1947 Galileo Ct,Davis,95618,Private,Fleet use only,,2,,,38.54246,-121.7279,77603,J1772,MUNI_GOV
Bldg 2017,Coronado,92135,Private,,,2,,,32.701602,-117.184216,77654,J1772,MIL_BASE
4545 Viewridge Ave,San Diego,92123,Public,8am-8:30pm M-F; Employee and visitor use only; 2 hour limit,,3,,,32.822918,-117.124015,77858,J1772,OFFICE_BLDG
555 Santa Clara St,Vallejo,94590,Private,Employee use only,,2,,,38.1022,-122.261,78132,J1772,MUNI_GOV
14684 Aloma St,Lost Hills,93249,Public,24 hours daily; for guest use only,,,1,,35.617189,-119.656363,78370,CHADEMO,HOTEL
209 E Kern St,Taft,93268,Public,24 hours daily,,1,,,35.140839,-119.448704,78782,J1772,MUNI_GOV
18721 Parthenia St,Northridge,91325,Private,Fleet use only,,2,,,34.2287165,-118.5414324,78833,J1772,UTILITY
4030 Crenshaw Blvd,Los Angeles,90012,Public,24 hours daily,,20,,,34.01223,-118.334323,78834,CHADEMO J1772 J1772COMBO,UTILITY
906 Redwood Dr,Garberville,95542,Public - Call ahead,"10am-5:30pm M-F, 10am-4pm Sat",,1,,,40.098333,-123.795397,78859,J1772,SHOPPING_CENTER
800 S Victoria Ave,Ventura,93009,Private,Motor pool use only,,14,,,34.267352,-119.2124,78884,J1772,MUNI_GOV
11666 National Blvd,Los Angeles,90064,Public,6am-12am daily,,2,,,34.022365,-118.43768,80009,J1772,GROCERY
260 S Main St,Los Angeles,90012,Private,LAPD fleet use only,,100,4,,34.0497723610577,-118.245105779098,81130,CHADEMO J1772 J1772COMBO,MUNI_GOV
1771 E Century Blvd,Los Angeles,90002,Public,24 hours daily,,1,,,33.9457165,-118.241112,81144,J1772,STREET_PARKING
4569 Las Positas Rd,Livermore,94551,Public,24 hours daily,,4,,,37.69435,-121.74205,81325,J1772,OFFICE_BLDG
2701 N Sepulveda Blvd,Los Angeles,90049,Public,"12pm-5pm T-F, 10am-5pm Sat-Sun",,6,,,34.124839,-118.479053,81371,J1772,MUSEUM
3901 N 1st St,San Jose,95134,Public - Credit card at all times,24 hours daily,,40,,,37.411854,-121.950581,81712,J1772,OFFICE_BLDG
3191 Normal Street,San Diego,92103,Public,,,3,,,32.74995,-117.14921,81772,J1772,
9490 Gold Coast Drive,San Diego,92126,Public,,,5,,,32.906906,-117.121827,81773,J1772,
1950 Abbott Street,San Diego,92107,Public,,,5,,,32.748368,-117.252451,81774,J1772,
36311 Lassen Ave,Huron,93234,Public,24 hours daily,,2,,,36.206049,-120.103577,82229,J1772,MUNI_GOV
2501 Nielson Way,Santa Monica,90405,Public,24 hours daily,,2,,,34.003119,-118.485302,82280,J1772,MUNI_GOV
900 S Fremont Ave,Alhambra,91803,Private,"6am-6pm M-F, keypad activated, instructions on EVSE",,24,,,34.084323,-118.149744,82323,J1772,MUNI_GOV
1000 W Carson St,Torrance,90502,Private,,,24,,,33.831538,-118.294546,82328,J1772,HOSPITAL
1918 S Broadway,Santa Maria,93454,Public,7:30am-7pm daily;,,1,,,34.925674,-120.435187,82352,J1772,CAR_DEALER
1200 Athens Ave,Lincoln,95648,Public,24 hours daily,,2,,,38.840266,-121.315634,82391,J1772,
1 World Way,Los Angeles,90045,Public,24 hours daily,,28,,,33.944267,-118.399183,82395,J1772,AIRPORT
8800 Venice Blvd,Los Angeles,90034,Private,For tenant use only,,4,,,34.029971,-118.385231,82400,J1772,PARKING_GARAGE
127 San Vicente Blvd,Los Angeles,90048,Private,Employee use only,,8,,,34.074544,-118.379207,82419,J1772,HOSPITAL
444 San Vicente Blvd,Los Angeles,90048,Private,Employee use only,,4,,,34.070505,-118.375833,82420,J1772,HOSPITAL
1320 El Capitan Dr,Danville,94506,Public - Credit card at all times,24 hours daily,,4,,,37.783831,-121.967591,82456,J1772,HOSPITAL
560 Auto Park Dr,Chula Vista,91911,Public - Call ahead,Dealership business hours,,4,,,32.593786,-117.030544,82460,J1772,CAR_DEALER
4100 S La Cienega Blvd,Los Angeles,90056,Public,Park business hours,,4,,,34.006112,-118.369027,82468,J1772,PARK
6550 E Pacific Coast Hwy,Long Beach,90803,Public,6am-12am daily,,2,,,33.754579,-118.109285,82470,J1772,GROCERY
2858 De La Cruz Blvd,Santa Clara,95050,Public,24 hours daily,,2,,,37.370725,-121.944726,82667,J1772,
1624 Dell Ave,Campbell,95008,Public,8am-6pm daily; register with Paired Power for access,,,6,,37.262755,-121.956546,82709,CHADEMO J1772COMBO,OFFICE_BLDG
401 E Chapman Ave,Placentia,92870,Private,City fleet vehicle use only,,10,,,33.871884,-117.862009,85478,J1772,MUNI_GOV
15100 W Kearney Blvd,Kerman,93630,Public,8am-5pm daily; maximum session time of 3 hours,,1,,,36.727657,-120.0617,85577,J1772,MUNI_GOV
1399 Draper St,Kingsburg,93631,Public,8am-5pm daily; maximum session time of 3 hours,,1,,,36.514767,-119.55285,85578,J1772,LIBRARY
643 Quince St,Mendota,93640,Public,8am-5pm daily; maximum session time of 3 hours,,1,,,36.753933,-120.382469,85579,J1772,MUNI_GOV
21900 W Colorado Ave,San Joaquin,93660,Public,8am-5pm daily; maximum session time of 3 hours,,1,,,36.605946,-120.186373,85580,J1772,MUNI_GOV
845 G St,Reedley,93654,Public,8am-5pm daily; maximum session time of 3 hours,,1,,,36.599016,-119.453595,85581,J1772,MUNI_GOV
1710 Tucker St,Selma,93662,Public,8am-5pm daily; maximum session time of 3 hours,,1,,,36.566656,-119.61008,85582,J1772,MUNI_GOV
633 6th St,Orange Cove,93646,Public,8am-5pm daily; maximum session time of 3 hours,,1,,,36.623959,-119.312389,85583,J1772,MUNI_GOV
1700 7th St,Sanger,93657,Public - Credit card at all times,24 hours daily; maximum session time of 3 hours,,6,,,36.706162,-119.562194,85584,J1772,MUNI_GOV
245 N 6th St,Coalinga,93210,Public,8am-5pm daily; maximum session time of 3 hours,,1,,,36.138693,-120.361843,85585,J1772,MUNI_GOV
1100 E Parlier Ave,Parlier,93648,Public,8am-5pm daily; maximum session time of 3 hours,,1,,,36.612177,-119.540641,85586,J1772,MUNI_GOV
306 S 7th St,Fowler,93625,Public,8am-5pm daily; maximum session time of 3 hours,,1,,,36.627738,-119.677688,85587,J1772,LIBRARY
245 N 6th St,Coalinga,93210,Private,For public transit and city vehicles only,,1,,,36.138693,-120.361843,85590,J1772,MUNI_GOV
15100 W Kearney Blvd,Kerman,93630,Private,For public transit and city vehicles only,,1,,,36.727657,-120.0617,85591,J1772,MUNI_GOV
643 Quince St,Mendota,93640,Private,For public transit and city vehicles only,,1,,,36.753933,-120.382469,85592,J1772,MUNI_GOV
633 6th St,Orange Cove,93646,Private,For public transit and city vehicles only,,1,,,36.623959,-119.312389,85593,J1772,MUNI_GOV
1100 E Parlier Ave,Parlier,93648,Private,For public transit and city vehicles only,,1,,,36.612177,-119.540641,85594,J1772,MUNI_GOV
845 G St,Reedley,93654,Private,For public transit and city vehicles only,,1,,,36.599016,-119.453595,85595,J1772,MUNI_GOV
21900 W Colorado Ave,San Joaquin,93660,Private,For public transit and city vehicles only,,1,,,36.605946,-120.186373,85596,J1772,MUNI_GOV
1700 7th St,Sanger,93657,Private,For public transit and city vehicles only,,2,,,36.706162,-119.562194,85597,J1772,MUNI_GOV
1710 Tucker St,Selma,93662,Private,For public transit and city vehicles only,,1,,,36.566656,-119.61008,85598,J1772,MUNI_GOV
306 S 7th St,Fowler,93625,Private,For public transit and city vehicles only,,1,,,36.627738,-119.677688,85599,J1772,LIBRARY
1399 Draper St,Kingsburg,93631,Private,For public transit and city vehicles only,,1,,,36.514767,-119.55285,85600,J1772,LIBRARY
8 Clark Rd,Moffett Field,94035,Public - Credit card at all times,24 hours daily,,,8,,37.409389,-122.063444,85628,CHADEMO J1772COMBO,FED_GOV
